id,city,country,lat,lng,date,temp,max temp,humidity,cloudiness,wind speed
2126199,Cherskiy,RU,68.75,161.3,1619470643,16.32,16.32,89,45,6.93
1805857,Jieshi,CN,22.81,115.83,1619470643,70.88,70.88,85,100,13.24
1631637,Pemangkat,ID,1.17,108.97,1619470644,77.86,77.86,86,18,3.04
2112539,Iwaki,JP,37.05,140.88,1619470644,41.0,41.0,72,0,3.65
5354943,Half Moon Bay,US,37.46,-122.43,1619470387,58.24,61.0,71,40,9.22
3421193,Paamiut,GL,61.99,-49.67,1619470644,34.84,34.84,91,92,6.4
5866583,Saint Paul Harbor,US,57.79,-152.41,1619470584,44.6,44.6,81,90,9.22
6201424,Mataura,NZ,-46.19,168.86,1619470624,41.0,41.0,84,99,10.0
3372964,Lagoa,PT,39.05,-27.98,1619470645,60.64,60.64,83,98,8.21
964420,Port Elizabeth,ZA,-33.92,25.57,1619470645,64.4,64.4,88,90,9.22
6078372,Moose Factory,CA,51.26,-80.61,1619470646,53.6,53.6,26,75,9.22
4030556,Rikitea,PF,-23.12,-134.97,1619470646,77.36,77.36,75,65,8.95
2618795,Klaksvík,FO,62.23,-6.59,1619470646,41.0,41.0,87,75,20.71
2447513,Arlit,NE,18.74,7.39,1619470508,94.44,94.44,9,99,10.45
3664980,Boa Vista,BR,2.82,-60.67,1619470647,78.8,78.8,83,75,4.61
2156643,Mount Gambier,AU,-37.83,140.77,1619470647,53.6,53.6,87,90,4.61
6185377,Yellowknife,CA,62.46,-114.35,1619470647,7.74,10.0,51,20,13.8
1735106,George Town,MY,5.41,100.34,1619470649,78.98,80.6,83,20,4.7
988698,Knysna,ZA,-34.04,23.05,1619470649,60.8,60.8,94,90,2.3
3355672,Lüderitz,NA,-26.65,15.16,1619470649,61.27,61.27,88,76,7.27
3366880,Hermanus,ZA,-34.42,19.23,1619470650,59.0,59.0,88,47,1.01
5122534,Jamestown,US,42.1,-79.24,1619470650,50.29,53.01,32,20,8.05
2121385,Severo-Kuril'sk,RU,50.68,156.12,1619470650,30.92,30.92,94,100,23.62
6355222,Yulara,AU,-25.24,130.99,1619470612,55.4,55.4,47,0,8.05
3874787,Punta Arenas,CL,-53.15,-70.92,1619470498,44.29,44.6,100,90,10.36
5282297,Bethel,US,41.37,-73.41,1619470638,57.34,59.0,24,1,10.36
5563839,Fortuna,US,40.6,-124.16,1619470651,53.98,55.99,71,75,9.22
6165406,Thompson,CA,55.74,-97.86,1619470651,46.4,46.4,49,75,12.66
5188140,Easton,US,40.69,-75.22,1619470618,59.61,61.0,26,0,12.66
1812256,Dongsheng,CN,39.82,109.98,1619470651,37.2,37.2,24,0,14.32
986717,Kruisfontein,ZA,-34.0,24.73,1619470652,63.0,63.0,84,62,7.0
1506268,Gornopravdinsk,RU,60.05,69.9,1619470652,34.75,34.75,83,37,6.42
2094027,Kieta,PG,-6.22,155.63,1619470652,80.85,80.85,79,83,2.89
3452483,Prado,BR,-17.34,-39.22,1619470653,77.68,77.68,77,13,10.25
2206939,Bluff,NZ,-46.6,168.33,1619470423,41.0,41.0,84,55,10.0
4004293,Ixtapa,MX,20.7,-105.2,1619470653,82.4,82.4,69,75,13.8
546105,Nikolskoye,RU,59.7,30.79,1619470653,41.23,42.8,70,75,4.47
2075265,Busselton,AU,-33.65,115.33,1619470620,56.26,57.0,92,100,1.01
2377450,Nouakchott,MR,18.09,-15.98,1619470654,69.8,69.8,78,7,17.27
286245,Sur,OM,22.57,59.53,1619470654,86.83,86.83,36,27,10.27
3833367,Ushuaia,AR,-54.8,-68.3,1619470654,44.6,44.6,81,90,3.44
3440777,Rocha,UY,-34.48,-54.33,1619470655,57.02,57.02,73,0,7.27
2318123,Yenagoa,NG,4.92,6.26,1619470655,79.43,79.43,87,14,4.25
487928,Novikovo,RU,51.15,37.89,1619470655,37.42,37.42,92,100,14.29
935215,Saint-Philippe,RE,-21.36,55.77,1619470656,71.55,77.0,78,75,16.11
2729907,Longyearbyen,SJ,78.22,15.64,1619470656,21.2,21.2,58,40,13.8
2208091,Waitara,NZ,-38.92,174.25,1619470656,52.0,52.0,76,100,3.0
1634614,Nabire,ID,-3.37,135.48,1619470656,75.2,75.2,86,87,2.93
6170031,Tuktoyaktuk,CA,69.45,-133.04,1619470657,8.6,8.6,72,1,16.11
3832899,Viedma,AR,-40.81,-63.0,1619470657,66.74,66.74,35,0,8.57
3430863,Mar del Plata,AR,-38.0,-57.56,1619470657,61.48,62.6,63,0,8.05
5576064,Craig,US,40.52,-107.55,1619470658,62.6,62.6,12,20,33.38
6540849,Acireale,IT,37.61,15.17,1619470658,57.02,60.01,94,40,9.22
2171099,Codrington,AU,-38.27,141.97,1619470658,54.12,54.12,80,61,2.77
1715015,Dicabisagan,PH,17.08,122.42,1619470659,74.37,74.37,83,98,5.53
3388456,São José da Coroa Grande,BR,-8.9,-35.15,1619470659,78.28,78.28,82,87,8.41
1015776,Bredasdorp,ZA,-34.53,20.04,1619470659,53.6,53.6,87,4,2.3
3985710,Cabo San Lucas,MX,22.89,-109.91,1619470659,79.18,80.01,36,75,9.22
3838859,Río Gallegos,AR,-51.62,-69.22,1619470660,69.8,69.8,26,75,17.27
3981391,Tomatlán,MX,19.93,-105.25,1619470660,91.31,91.31,31,100,11.03
934322,Mahébourg,MU,-20.41,57.7,1619470660,78.8,78.8,78,75,16.11
4147241,Belle Glade,US,26.68,-80.67,1619470661,81.68,82.0,53,2,1.01
2065594,Mount Isa,AU,-20.73,139.5,1619470661,73.4,73.4,56,56,8.05
1806840,Huilong,CN,31.81,121.66,1619470661,63.28,64.99,83,100,7.92
786827,Požarevac,RS,44.62,21.18,1619470662,48.78,50.0,53,90,9.22
1517060,Zaysan,KZ,47.47,84.87,1619470662,44.44,44.44,43,75,5.03
5848280,Kapaa,US,22.08,-159.32,1619470662,76.15,77.0,73,1,12.66
2013986,Ust'-Barguzin,RU,53.45,108.98,1619470663,27.28,27.28,89,79,3.27
5397664,South Lake Tahoe,US,38.93,-119.98,1619470663,36.28,37.99,41,75,9.22
1486321,Yar-Sale,RU,66.83,70.83,1619470663,33.62,33.62,97,100,13.49
3369157,Cape Town,ZA,-33.93,18.42,1619470623,62.1,63.0,82,75,19.57
5106841,Albany,US,42.6,-73.97,1619470440,53.04,55.0,28,1,1.99
5962442,Goderich,CA,43.75,-81.72,1619470664,37.4,37.4,65,100,4.61
89113,Ajdabiya,LY,30.76,20.23,1619470664,64.6,64.6,56,8,6.17
3932145,Pisco,PE,-13.7,-76.22,1619470664,68.43,69.01,83,20,8.05
924492,Ntcheu,MW,-14.82,34.64,1619470665,65.84,65.84,87,97,3.0
123941,Mīnāb,IR,27.15,57.08,1619470665,75.2,75.2,64,1,9.22
4032243,Vaini,TO,-21.2,-175.2,1619470665,75.2,75.2,94,75,4.61
3460087,Jardim,BR,-21.48,-56.14,1619470665,74.08,74.08,46,0,5.3
5364271,Laguna,US,38.42,-121.42,1619470666,65.12,68.0,34,20,5.3
632978,Vaasa,FI,63.1,21.62,1619470666,29.53,30.99,80,0,2.3
3394023,Natal,BR,-5.79,-35.21,1619470545,83.34,84.2,70,40,12.66
5861897,Fairbanks,US,64.84,-147.72,1619470621,54.25,59.0,37,20,3.65
2253354,Dakar,SN,14.69,-17.44,1619470514,69.8,69.8,83,0,18.41
964432,Port Alfred,ZA,-33.59,26.89,1619470451,67.46,67.46,85,99,14.07
2418092,Lola,GN,7.8,-8.53,1619470667,73.15,73.15,88,98,2.73
4726521,San Patricio,US,28.02,-97.52,1619470667,80.96,82.4,65,90,17.27
3543961,Beba,CU,22.44,-79.73,1619470667,89.6,89.6,40,40,12.66
4166673,Ocala,US,29.19,-82.14,1619470389,83.1,84.0,42,40,5.75
1185095,Teknāf,BD,20.86,92.31,1619470668,77.83,77.83,88,9,1.19
1254709,Tezu,IN,27.92,96.17,1619470668,74.7,74.7,26,21,4.94
3443061,Chui,UY,-33.7,-53.46,1619470623,60.24,60.24,65,13,8.99
5855927,Hilo,US,19.73,-155.09,1619470668,71.31,73.4,73,90,4.61
5546220,Saint George,US,37.1,-113.58,1619470565,56.61,57.0,54,75,17.27
5110365,Broome,US,42.25,-75.83,1619470669,48.96,51.01,29,1,20.71
4020109,Atuona,PF,-9.8,-139.03,1619470638,79.77,79.77,76,65,16.08
2022572,Khatanga,RU,71.97,102.5,1619470669,17.13,17.13,87,100,12.35
2037799,Datong,CN,40.09,113.29,1619470670,44.4,44.4,17,21,10.42
3421319,Nuuk,GL,64.18,-51.72,1619470670,35.29,35.6,100,75,6.91
2017155,Saskylakh,RU,71.92,114.08,1619470670,1.35,1.35,98,98,4.61
4035715,Avarua,CK,-21.21,-159.78,1619470611,80.6,80.6,78,43,4.61
2400578,Fougamou,GA,-1.22,10.58,1619470671,75.56,75.56,97,90,1.77
5880054,Barrow,US,71.29,-156.79,1619470671,17.6,17.6,73,1,17.27
1181611,Chaman,PK,30.92,66.45,1619470671,73.36,73.36,18,7,2.95
2449938,Ténenkou,ML,14.46,-4.92,1619470671,96.71,96.71,9,16,7.47
3418910,Upernavik,GL,72.79,-56.15,1619470672,36.57,36.57,85,42,3.78
1528606,Kemin,KG,42.78,75.69,1619470672,54.27,54.27,50,52,8.1
4968234,Jay,US,44.5,-70.22,1619470673,41.74,43.0,49,75,13.8
1278935,Amalāpuram,IN,16.58,82.02,1619470673,77.86,77.86,82,1,2.19
1649150,Bengkulu,ID,-3.8,102.27,1619470673,75.27,75.27,88,81,4.38
3652764,Puerto Ayora,EC,-0.74,-90.35,1619470674,82.4,82.4,69,40,19.57
3416888,Grindavik,IS,63.84,-22.43,1619470674,46.4,46.4,71,0,1.14
3831208,Qaanaaq,GL,77.48,-69.36,1619470674,39.31,39.31,70,89,7.67
2013639,Verkhnevilyuysk,RU,63.45,120.32,1619470674,13.8,13.8,89,99,8.66
3401148,Cururupu,BR,-1.83,-44.87,1619470675,77.45,77.45,85,97,4.0
651299,Korsholm,FI,63.11,21.68,1619470675,29.53,30.99,80,0,2.3
1488741,Tyumentsevo,RU,53.32,81.5,1619470675,47.39,47.39,82,97,7.47
3372707,Ribeira Grande,PT,38.52,-28.7,1619470676,60.8,60.8,77,40,3.76
2450173,Taoudenni,ML,22.68,-3.98,1619470676,95.25,95.25,12,42,11.41
8079926,Labuhan,ID,-6.88,112.21,1619470676,76.91,76.91,83,90,6.38
468866,Yartsevo,RU,55.07,32.7,1619470677,30.36,30.36,81,11,3.98
6690296,Saint-Joseph,RE,-21.37,55.62,1619470677,71.64,77.0,78,75,16.11
6945992,Betsiamites,CA,48.94,-68.65,1619470677,41.05,42.8,93,90,8.05
3038333,Arrondissement d'Ajaccio,FR,42.0,8.92,1619470678,59.0,59.0,72,0,4.61
5261969,Marshfield,US,44.67,-90.17,1619470413,49.19,50.0,53,90,16.11
2181988,Takapau,NZ,-40.03,176.35,1619470678,55.0,55.0,80,97,7.0
2068110,Kununurra,AU,-15.77,128.73,1619470678,75.2,75.2,73,43,1.14
2033135,Zhengjiatun,CN,43.51,123.51,1619470679,51.8,51.8,63,100,17.43
5983720,Iqaluit,CA,63.75,-68.51,1619470679,28.2,28.4,86,90,27.63
2173911,Broken Hill,AU,-31.95,141.43,1619470679,48.2,48.2,66,13,5.73
2094342,Kavieng,PG,-2.57,150.8,1619470680,82.09,82.09,74,65,0.65
780687,Berlevåg,NO,70.86,29.09,1619470680,30.67,32.0,86,90,9.22
5742974,North Bend,US,43.41,-124.22,1619470382,53.29,54.0,66,90,9.22
72181,Marzuq,YE,14.4,46.47,1619470681,73.62,73.62,47,99,6.04
2636790,Stornoway,GB,58.21,-6.39,1619470681,46.24,46.4,87,90,9.22
3440714,Salto,UY,-31.38,-57.97,1619470681,68.0,68.0,59,19,5.23
1817240,Baiyin,CN,36.56,104.21,1619470681,42.8,42.8,61,40,2.24
1521293,Lugovoy,KZ,42.95,72.76,1619470682,54.21,54.21,50,0,5.77
2125693,Evensk,RU,61.95,159.23,1619470682,14.67,14.67,87,21,4.81
5557293,Sitka,US,57.05,-135.33,1619470682,51.8,51.8,54,1,3.44
6148373,Sioux Lookout,CA,50.1,-91.92,1619470428,37.4,37.4,75,90,10.36
2137748,Voh,NC,-20.97,164.7,1619470683,72.18,72.18,79,32,7.78
3414079,Olafsvik,IS,64.89,-23.71,1619470683,42.37,42.37,62,0,4.32
2033574,Zhangjiakou Shi Xuanhua Qu,CN,40.61,115.04,1619470684,49.57,49.57,19,4,15.19
2163355,Hobart,AU,-42.88,147.33,1619470651,42.75,46.99,93,20,4.61
2180815,Tuatapere,NZ,-46.13,167.68,1619470684,41.0,41.0,84,94,10.0
4574324,Charleston,US,32.78,-79.93,1619469912,72.03,73.4,43,1,8.05
5847411,Kahului,US,20.89,-156.47,1619470667,78.42,82.4,54,1,5.19
2033536,Yakeshi,CN,49.28,120.73,1619470684,34.68,34.68,84,82,24.09
3115824,Muros,ES,42.78,-9.06,1619470685,56.08,57.0,87,60,4.0
3470137,Belmonte,BR,-15.86,-38.88,1619470685,78.8,78.8,69,40,8.05
3652758,Puerto Baquerizo Moreno,EC,-0.9,-89.6,1619470685,84.2,84.2,65,20,16.11
1540711,Muravlenko,RU,63.79,74.52,1619470686,35.6,35.6,98,100,17.58
2100765,Angoram,PG,-4.06,144.07,1619470686,73.56,73.56,97,100,1.1
1106677,Bambous Virieux,MU,-20.34,57.76,1619470686,77.95,78.8,78,75,16.11
1528998,Yumen,CN,40.28,97.2,1619470687,39.47,39.47,22,97,7.34
1489656,Teya,RU,60.38,92.63,1619470687,28.6,28.6,97,34,2.51
189280,Lodwar,KE,3.12,35.6,1619470687,77.5,77.5,68,86,17.47
1505260,Ivdel',RU,60.69,60.42,1619470688,36.52,36.52,92,100,5.91
2152659,Port Macquarie,AU,-31.43,152.92,1619470688,53.02,54.0,97,4,3.0
2110227,Butaritari,KI,3.07,172.79,1619470689,83.19,83.19,75,94,13.56
1490256,Talnakh,RU,69.49,88.4,1619470689,10.69,10.69,80,94,9.06
2514651,Los Llanos de Aridane,ES,28.66,-17.92,1619470689,63.82,69.8,68,90,4.61
2366168,Kandé,TG,9.96,1.04,1619470690,87.13,87.13,45,98,3.98
3466704,Castro,BR,-24.79,-50.01,1619470690,62.89,62.89,74,37,2.1
2852458,Potsdam,DE,52.4,13.07,1619470690,39.78,41.0,57,26,6.51
2208248,Kaitangata,NZ,-46.28,169.85,1619470691,43.0,43.0,86,66,5.01
1006984,East London,ZA,-33.02,27.91,1619470407,71.01,71.01,58,100,5.14
5367788,Lompoc,US,34.64,-120.46,1619470665,57.97,60.8,55,2,14.97
2088122,Port Moresby,PG,-9.44,147.18,1619470691,75.2,75.2,100,40,3.44
990930,Kimberley,ZA,-28.73,24.76,1619470691,57.2,57.2,47,99,8.05
1811720,Enshi,CN,30.3,109.48,1619470692,57.22,57.22,96,100,1.07
2191562,Dunedin,NZ,-45.87,170.5,1619470692,44.01,44.01,71,42,15.01
1507390,Dikson,RU,73.51,80.55,1619470692,31.68,31.68,98,100,18.25
1819729,Hong Kong,HK,22.29,114.16,1619470408,72.79,73.99,91,100,1.99
1267635,Karwar,IN,14.8,74.13,1619470693,81.45,81.45,79,29,2.1
3883457,Lebu,CL,-37.62,-73.65,1619470693,58.05,58.05,76,4,11.88
3423146,Ilulissat,GL,69.22,-51.1,1619470693,51.8,51.8,40,75,16.11
104515,Makkah al Mukarramah,SA,21.43,39.83,1619470679,85.24,85.24,41,0,3.76
1810240,Gejiu,CN,23.31,103.16,1619470694,54.68,54.68,93,100,3.65
4031574,Provideniya,RU,64.38,-173.3,1619470694,39.2,39.2,70,0,4.47
6167817,Torbay,CA,47.67,-52.73,1619470694,40.24,42.01,65,90,18.41
4256085,Connersville,US,39.64,-85.14,1619470497,72.48,73.0,32,3,15.3
481548,Troitsko-Pechorsk,RU,62.71,56.2,1619470695,32.49,32.49,86,59,3.02
2068655,Katherine,AU,-14.47,132.27,1619470695,73.4,73.4,88,100,3.44
2015913,Suntar,RU,62.14,117.63,1619470695,18.66,18.66,85,94,8.37
124274,Mahrīz,IR,31.59,54.43,1619470695,75.2,75.2,29,75,4.61
2446796,Bilma,NE,18.69,12.92,1619470696,91.04,91.04,9,15,10.56
2381334,Atar,MR,20.52,-13.05,1619470696,85.46,85.46,16,49,6.62
3424607,Tasiilaq,GL,65.61,-37.64,1619470696,39.2,39.2,75,75,9.04
3141667,Roald,NO,62.58,6.13,1619470697,37.99,39.2,81,0,12.66
2074865,Carnarvon,AU,-24.87,113.63,1619470697,62.6,62.6,72,0,5.75
3175096,Laas,IT,46.62,10.7,1619470661,48.36,54.0,100,90,5.75
2155415,New Norfolk,AU,-42.78,147.06,1619470697,45.12,46.99,86,13,2.71
517739,Novouzensk,RU,50.46,48.14,1619470698,48.15,48.15,53,100,6.87
5924351,Clyde River,CA,70.47,-68.59,1619470698,24.8,24.8,100,90,4.23
3361934,Saldanha,ZA,-33.01,17.94,1619470702,60.8,60.8,94,73,20.71
1705441,Lubao,PH,14.92,120.55,1619470703,76.1,77.0,78,75,2.3
370737,Malakal,SS,9.53,31.66,1619470703,77.05,77.05,70,99,5.95
6156245,Stephenville Crossing,CA,48.5,-58.43,1619470703,51.28,51.8,76,90,32.21
105298,Jizan,SA,17.33,42.67,1619470704,87.8,87.8,66,20,4.47
3412093,Vestmannaeyjar,IS,63.44,-20.27,1619470704,45.43,45.43,88,5,9.28
212360,Kongolo,CD,-5.38,27.0,1619470704,72.28,72.28,92,100,1.9
2120048,Ust-Nera,RU,64.57,143.2,1619470704,20.53,20.53,91,100,3.31
777019,Vardø,NO,70.37,31.11,1619470705,32.0,32.0,86,75,8.05
697593,Pervomays'k,UA,48.04,30.85,1619470705,40.59,40.59,63,68,4.54
1282256,Hithadhoo,MV,-0.6,73.08,1619470705,82.49,82.49,64,10,5.19
6096551,Pangnirtung,CA,66.15,-65.71,1619470706,35.6,35.6,87,90,4.61
5847486,Kailua,US,21.4,-157.74,1619470706,78.55,78.8,61,75,10.36
608036,Temir,KZ,49.14,57.13,1619470706,55.18,55.18,58,100,11.25
3533462,Acapulco de Juárez,MX,16.86,-99.89,1619470707,87.8,87.8,62,1,9.22
2381972,Adrar,MR,20.5,-10.07,1619470707,88.88,88.88,17,44,9.19
933995,Souillac,MU,-20.52,57.52,1619470631,78.8,78.8,78,75,16.11
2392087,Porto-Novo,BJ,6.5,2.6,1619470707,86.0,86.0,74,20,13.8
5957776,Fredericton,CA,45.95,-66.67,1619470684,41.92,42.8,87,90,13.8
2112309,Katsuura,JP,35.13,140.3,1619470708,49.64,53.6,66,75,1.14
3448903,São João da Barra,BR,-21.64,-41.05,1619470708,80.6,80.6,69,0,13.8
3899695,Ancud,CL,-41.87,-73.82,1619470708,55.02,62.01,77,75,11.5
912628,Kasempa,ZM,-13.46,25.83,1619470709,67.46,67.46,65,95,2.17
3374210,São Filipe,CV,14.9,-24.5,1619470616,72.12,72.12,78,5,11.65
3879627,Molina,CL,-35.12,-71.28,1619470709,60.8,60.8,63,0,9.22
4634662,Kingsport,US,36.55,-82.56,1619470513,76.15,77.0,19,40,3.44
2122614,Okha,RU,53.57,142.95,1619470710,28.47,28.47,82,15,10.65
2630299,Hofn,IS,64.25,-15.21,1619470710,39.61,39.61,71,14,5.73
1062553,Mahanoro,MG,-19.9,48.8,1619470710,72.5,72.5,93,100,3.8
5870133,Nome,US,64.5,-165.41,1619470711,39.2,39.2,70,1,3.44
2034615,Tahe,CN,52.33,124.73,1619470711,43.5,43.5,57,100,4.14
2412408,Nioro,GM,13.35,-15.75,1619470711,82.98,82.98,37,13,12.64
162099,Abadan,TM,38.05,58.21,1619470712,80.6,80.6,17,9,4.61
2517750,Felanitx,ES,39.47,3.15,1619470712,60.69,62.6,72,40,8.05
3839307,Rawson,AR,-43.3,-65.1,1619470712,69.26,69.26,33,23,5.41
3899539,Antofagasta,CL,-23.65,-70.4,1619470712,66.2,66.2,68,0,11.5
935214,Saint-Pierre,RE,-21.34,55.48,1619470713,72.41,77.0,78,75,16.11
1106643,Quatre Cocos,MU,-20.21,57.76,1619470713,77.86,78.8,78,75,16.11
4565346,Hatillo,PR,18.49,-66.83,1619470713,80.96,82.99,69,75,8.05
2028164,Deputatsky,RU,69.3,139.9,1619470714,24.73,24.73,93,100,1.66
2084442,Vanimo,PG,-2.67,141.3,1619470714,76.87,76.87,86,15,2.71
64814,Bandarbeyla,SO,9.49,50.81,1619470714,83.05,83.05,72,80,6.13
2126682,Bilibino,RU,68.05,166.44,1619470715,22.3,22.3,91,100,2.86
3663529,Manacapuru,BR,-3.3,-60.62,1619470715,73.4,73.4,94,90,5.75
2405952,Manowa,SL,8.17,-10.75,1619470716,79.27,79.27,77,64,2.04
2178753,Kirakira,SB,-10.45,161.92,1619470716,80.6,80.6,81,74,5.57
6324729,Halifax,CA,44.65,-63.57,1619470539,52.39,53.6,66,75,14.97
2396518,Port-Gentil,GA,-0.72,8.78,1619470716,82.67,82.67,78,100,7.02
2172880,Byron Bay,AU,-28.65,153.62,1619470553,55.47,55.99,100,73,4.61
1056899,Sambava,MG,-14.27,50.17,1619470717,75.61,75.61,88,66,8.59
3433663,Gualeguay,AR,-33.14,-59.31,1619470717,63.28,63.28,66,94,4.29
1806445,Ji’an,CN,27.12,114.98,1619470717,63.52,63.52,96,100,4.59
2274275,Robertsport,LR,6.75,-11.37,1619470718,82.81,82.81,81,63,12.26
3446979,Tanabi,BR,-20.63,-49.65,1619470718,82.4,82.4,36,40,8.05
2032201,Bulgan,MN,48.81,103.53,1619470718,28.38,28.38,56,0,5.99
1624041,Ternate,ID,0.8,127.4,1619470719,80.17,80.17,79,19,5.03
1806881,Huicheng,CN,23.04,116.29,1619470719,71.6,71.6,73,75,6.71
5654391,Glendive,US,47.11,-104.71,1619470719,56.07,57.0,47,90,8.05
3466165,Cidreira,BR,-30.18,-50.21,1619470647,66.27,66.27,66,53,10.87
2013727,Vanavara,RU,60.34,102.28,1619470720,14.36,14.36,95,13,2.24
1651810,Airai,TL,-8.93,125.41,1619470619,55.24,55.24,73,92,1.66
3065163,Štětí,CZ,50.45,14.37,1619470720,36.64,39.0,61,46,1.01
1630789,Pontianak,ID,-0.03,109.33,1619470720,75.2,75.2,100,12,2.3
4673258,Beeville,US,28.4,-97.75,1619470721,82.92,84.2,58,1,13.8
2031964,Darhan,MN,49.49,105.92,1619470721,34.5,34.5,58,65,4.63
2092164,Lorengau,PG,-2.02,147.27,1619470721,81.27,81.27,76,95,1.3
336014,Gonder,ET,12.6,37.47,1619470721,57.96,57.96,80,100,2.06
1062663,Mahajanga,MG,-15.72,46.32,1619470722,77.0,77.0,88,40,13.8
4001056,La Orilla,MX,17.98,-102.23,1619470722,85.98,85.98,48,94,11.92
2027968,Aldan,RU,58.6,125.39,1619470722,30.99,30.99,99,100,6.6
1734705,Kuala Terengganu,MY,5.33,103.14,1619470723,78.4,78.8,94,20,3.44
876177,Luau,AO,-10.71,22.22,1619470723,65.28,65.28,86,97,3.2
1637001,Biak,ID,-0.91,122.88,1619470723,75.58,75.58,85,91,5.5
2930596,Emden,DE,53.37,7.22,1619470724,38.44,42.01,79,89,4.0
3357804,Eenhana,NA,-17.47,16.33,1619470724,69.8,69.8,46,3,3.44
1516048,Khovd,MN,48.01,91.64,1619470724,32.67,32.67,30,40,1.14
373303,Juba,SS,4.85,31.58,1619470724,70.5,70.5,91,99,2.82
587207,Artyom,AZ,40.47,50.33,1619470725,53.6,53.6,94,20,4.61
2137773,Vao,NC,-22.67,167.48,1619470675,73.62,73.62,66,70,21.77
240210,Birao,CF,10.28,22.79,1619470725,83.82,83.82,30,10,1.61
415189,Aden,YE,12.78,45.04,1619470530,83.28,83.28,74,91,10.22
4015700,Cananea,MX,30.95,-110.3,1619470726,70.38,75.99,20,7,8.99
5563397,Eureka,US,40.8,-124.16,1619470726,57.13,57.99,62,100,5.01
2070998,Geraldton,AU,-28.77,114.6,1619470726,57.2,57.2,77,19,8.05
2264557,Ponta do Sol,PT,32.67,-17.1,1619470656,57.29,62.01,75,93,1.01
1277769,Baikunthpur,IN,23.25,82.55,1619470727,74.66,74.66,12,43,1.77
945945,Upington,ZA,-28.45,21.26,1619470727,71.6,71.6,35,73,5.75
2436400,Ati,TD,13.22,18.34,1619470727,88.65,88.65,10,77,10.04
686090,Asău,RO,46.43,26.4,1619470728,41.0,41.0,60,100,3.09
2038154,Changping,CN,40.22,116.22,1619470728,47.19,48.0,93,0,2.24
4013679,Coahuayana Viejo,MX,18.73,-103.68,1619470728,87.8,87.8,40,90,8.1
485643,Svetlyy Yar,RU,48.47,44.78,1619470729,42.4,42.8,93,75,3.78
364933,Umm Kaddadah,SD,13.6,26.69,1619470686,80.76,80.76,8,16,13.49
1636308,Manokwari,ID,-0.87,134.08,1619470729,78.64,78.64,77,100,4.38
2334008,Kontagora,NG,10.4,5.47,1619470729,87.98,87.98,42,24,4.21
3492997,Samaná,DO,19.21,-69.34,1619470730,87.8,87.8,70,40,10.36
293842,Kiryat Gat,IL,31.61,34.76,1619470730,62.31,66.0,100,49,6.08
4362001,Mayo,US,38.89,-76.51,1619470730,64.13,66.0,23,1,10.36
898912,Serenje,ZM,-13.23,30.24,1619470731,61.61,61.61,79,71,4.16
3598787,Champerico,GT,14.3,-91.92,1619470731,83.98,89.6,66,75,6.91
2527087,Tiznit Province,MA,29.58,-9.5,1619470731,59.2,59.2,77,44,5.1
3347019,Mossamedes,AO,-15.2,12.15,1619470708,75.72,75.72,73,1,7.47
3377301,Mabaruma,GY,8.2,-59.78,1619470732,81.9,81.9,67,97,6.89
2109528,Buala,SB,-8.14,159.59,1619470732,82.36,82.36,79,90,4.74
4887163,Champaign,US,40.13,-88.2,1619470732,77.63,80.6,26,1,32.21
467479,Yenotayevka,RU,47.25,47.03,1619470733,42.01,42.01,74,100,7.23
2128975,Nemuro,JP,43.32,145.57,1619470733,34.59,34.59,71,21,10.18
3404558,Cabedelo,BR,-6.98,-34.83,1619470733,80.6,80.6,94,0,9.22
342856,Bako,ET,5.78,36.57,1619470734,61.56,61.56,95,100,5.06
3372760,Praia da Vitória,PT,38.73,-27.07,1619470734,61.92,62.6,82,75,7.31
1513491,Yangi Marg`ilon,UZ,40.43,71.72,1619470734,62.6,62.6,48,0,4.03
1684803,Tabuk,PH,17.42,121.44,1619470734,71.67,71.67,86,98,2.19
5905393,Bonavista,CA,48.65,-53.11,1619470735,43.59,46.4,57,100,9.22
4513583,Hamilton,US,39.18,-84.53,1619470530,73.35,75.0,35,1,8.05
2071860,Esperance,AU,-33.87,121.9,1619470735,66.2,66.2,45,100,14.97
1271883,Firozpur,IN,30.92,74.6,1619470736,80.6,80.6,57,0,6.26
304797,Mardin,TR,37.31,40.74,1619470736,59.11,59.11,42,0,3.47
4036284,Alofi,NU,-19.06,-169.92,1619470736,82.4,82.4,83,40,6.91
1507035,Dzerzhinskoye,RU,56.83,95.23,1619470736,36.16,36.16,99,100,1.23
7671223,Kloulklubed,PW,7.04,134.26,1619470737,77.0,77.0,88,75,7.52
1260035,Pātūr,IN,20.45,76.93,1619470737,87.89,87.89,29,98,11.65
3014392,Guérande,FR,47.33,-2.43,1619470737,53.62,55.4,54,0,10.36
2020738,Litovko,RU,49.24,135.17,1619470738,43.47,43.47,50,98,1.39
2136825,Isangel,VU,-19.55,169.27,1619470738,71.6,71.6,88,20,7.78
3336897,La Rioja,ES,42.25,-2.5,1619470738,56.71,57.99,82,90,3.44
5887916,Athabasca,CA,54.72,-113.29,1619470739,43.54,46.4,48,100,8.05
3887127,Iquique,CL,-20.22,-70.14,1619470739,69.8,69.8,60,0,13.8
2258984,Kinkala,CG,-4.36,14.76,1619470739,73.56,73.56,91,98,1.83
3407980,Alenquer,BR,-1.94,-54.74,1619470740,80.6,80.6,89,75,3.44
1507116,Dudinka,RU,69.41,86.18,1619470740,19.58,19.58,89,98,17.76
113659,Tabas,IR,33.6,56.92,1619470740,81.25,81.25,23,98,4.47
108648,Qurayyat,SA,31.33,37.34,1619470740,64.4,64.4,55,0,23.02
2022773,Khandyga,RU,62.67,135.6,1619470741,32.0,32.0,98,100,5.61
1855612,Nara,JP,34.69,135.8,1619470741,44.98,48.0,81,0,4.61
523051,Nebolchi,RU,59.12,33.35,1619470742,33.04,33.04,99,100,3.33
4034551,Faanui,PF,-16.48,-151.75,1619470653,81.1,81.1,67,99,4.14
472357,Volosovo,RU,59.43,29.48,1619470742,42.8,42.8,70,75,4.47
5134295,Rome,US,43.21,-75.46,1619470743,46.69,48.0,39,1,16.11
2038300,Benxi,CN,41.29,123.77,1619470743,53.6,53.6,82,90,8.95
1640972,Katobu,ID,-4.94,122.53,1619470743,73.78,73.78,91,4,2.82
5746545,Portland,US,45.52,-122.68,1619470388,55.96,57.99,71,90,8.05
2013279,Vostok,RU,46.49,135.88,1619470743,35.35,35.35,49,16,4.29
1633070,Palembang,ID,-2.92,104.75,1619470744,73.92,73.92,96,21,2.73
933759,Ghanzi,BW,-21.57,21.78,1619470506,65.75,65.75,33,0,1.48
3489440,Morant Bay,JM,17.88,-76.41,1619470744,83.44,84.0,69,40,19.57
1629380,Ruteng,ID,-8.61,120.47,1619470744,57.65,57.65,78,12,1.81
1266668,Khonsa,IN,27.02,95.57,1619470745,69.03,69.03,34,64,4.54
2017979,Petropavlovka,RU,50.61,105.32,1619470745,34.07,34.07,69,10,12.17
3372783,Ponta Delgada,PT,37.73,-25.67,1619470675,60.8,60.8,77,75,8.05
5380437,Pacific Grove,US,36.62,-121.92,1619470746,57.31,60.8,48,1,11.5
2121025,Srednekolymsk,RU,67.45,153.68,1619470746,19.53,19.53,81,20,5.35
3453060,Pontes e Lacerda,BR,-15.23,-59.34,1619470746,74.77,74.77,78,66,4.59
5044290,Saint Anthony,US,45.02,-93.22,1619470746,48.43,50.0,61,90,8.05
3421765,Nanortalik,GL,60.14,-45.24,1619470747,34.41,34.41,98,100,7.65
4021858,Guerrero Negro,MX,27.98,-114.06,1619470747,65.88,65.88,54,97,15.86
5127305,Monroe,US,43.15,-77.68,1619470712,48.61,50.0,29,20,5.75
1636808,Majenang,ID,-7.3,108.76,1619470749,74.28,74.28,95,1,1.21
779622,Havøysund,NO,71.0,24.66,1619470749,31.12,32.0,93,75,12.66
2126123,Chokurdakh,RU,70.63,147.92,1619470749,21.16,21.16,92,100,4.83
1502073,Krasnosel'kup,RU,65.7,82.47,1619470750,27.97,27.97,91,73,12.91
2127060,Arman',RU,59.7,150.17,1619470750,18.5,18.5,83,17,3.29
2032614,Baruun-Urt,MN,46.68,113.28,1619470750,31.08,31.08,52,27,18.9
1636426,Manggar,ID,-2.88,108.27,1619470750,81.73,81.73,72,21,7.56
1803331,Linxia Chengguanzhen,CN,35.6,103.21,1619470751,39.6,39.6,54,20,4.32
146669,Ayios Ioannis,CY,34.9,33.02,1619470751,60.84,64.4,88,0,18.41
2396853,Omboué,GA,-1.57,9.26,1619470751,79.27,79.27,86,100,5.12
2139521,Noumea,NC,-22.28,166.46,1619470752,73.67,75.99,88,75,5.75
2367990,Aného,TG,6.23,1.6,1619470752,84.2,84.2,84,40,6.91
6620339,Karratha,AU,-20.74,116.85,1619470752,74.35,74.35,40,0,7.96
1259460,Pokaran,IN,26.92,71.92,1619470753,85.5,85.5,16,0,13.47
1633419,Padang,ID,-0.95,100.35,1619470704,77.58,77.58,87,86,4.29
3446098,Três Lagoas,BR,-20.75,-51.68,1619470753,76.08,76.08,57,21,7.67
6162951,Terrace Bay,CA,48.78,-87.1,1619470753,38.1,39.2,38,90,8.05
1728675,Balabac,PH,7.99,117.06,1619470754,80.13,80.13,77,87,3.47
2464701,Tataouine,TN,32.93,10.45,1619470754,87.8,87.8,11,99,4.61
1267390,Kavaratti,IN,10.57,72.64,1619470754,83.95,83.95,73,0,7.45
2122090,Pevek,RU,69.7,170.31,1619470755,19.92,19.92,91,98,3.51
237379,Ndélé,CF,8.41,20.65,1619470755,78.82,78.82,58,10,4.47
2027316,Ayan,RU,56.45,138.17,1619470755,28.67,28.67,89,100,5.19
1797535,Qiongshan,CN,20.01,110.35,1619470756,73.4,73.4,94,0,2.24
5322400,Adelanto,US,34.58,-117.41,1619470756,55.8,57.99,55,32,18.01
4033557,Tautira,PF,-17.73,-149.15,1619470756,84.09,84.2,70,40,11.5
921786,Mitsamiouli,KM,-11.38,43.28,1619470757,81.12,81.12,74,39,9.55
601551,Akdepe,TM,42.06,59.38,1619470757,66.2,66.2,34,0,9.22
5515743,Guymon,US,36.68,-101.48,1619470757,87.8,87.8,11,1,25.32
4437982,Natchez,US,31.56,-91.4,1619470757,79.74,80.6,47,1,11.5
2616504,Nexø,DK,55.06,15.13,1619470758,41.0,41.0,81,25,13.8
4703078,Kerrville,US,30.05,-99.14,1619470524,78.03,78.8,57,75,19.57
1735634,Kuching,MY,1.55,110.33,1619470758,77.0,77.0,94,20,2.39
3445026,Vila Velha,BR,-20.33,-40.29,1619470759,81.34,82.0,78,75,8.05
2025256,Chumikan,RU,54.72,135.31,1619470759,30.49,30.49,89,100,5.14
2194098,Ahipara,NZ,-35.17,173.17,1619470759,61.83,61.83,74,16,8.9
3033415,Berck,FR,50.4,1.6,1619470759,42.8,42.8,75,0,9.22
934479,Grand Gaube,MU,-20.01,57.66,1619470760,77.0,77.0,84,100,10.0
6089245,Norman Wells,CA,65.28,-126.83,1619470760,15.8,15.8,41,75,5.75
2136697,Lakatoro,VU,-16.1,167.42,1619470760,80.06,80.06,75,100,10.07
2112802,Hasaki,JP,35.73,140.83,1619470761,39.04,41.0,75,20,3.44
2177254,Bagotville,AU,-28.98,153.42,1619470761,54.41,55.99,100,40,4.61
1734313,Paka,MY,4.64,103.44,1619470761,77.0,77.0,94,79,1.14
2021017,Kysyl-Syr,RU,63.9,122.76,1619470762,13.57,13.57,93,100,8.61
2091996,Madang,PG,-5.22,145.8,1619470762,76.05,76.05,86,100,3.69
1529484,Kumul,CN,42.8,93.45,1619470762,47.59,47.59,17,6,9.78
2134814,Sola,VU,-13.88,167.55,1619470763,81.14,81.14,76,81,11.48
1492466,Shalinskoye,RU,55.72,93.76,1619470763,31.71,31.71,98,98,4.23
2956656,Amberg,DE,49.44,11.86,1619470763,41.34,42.8,52,1,4.61
2108502,Honiara,SB,-9.43,159.95,1619470764,80.28,80.28,81,97,2.84
933471,Mahalapye,BW,-23.1,26.81,1619470506,65.52,65.52,19,0,2.26
797213,Pervomayskoye,RU,43.92,46.71,1619470764,52.16,52.16,91,100,9.35
1515029,Ulaangom,MN,49.98,92.07,1619470764,31.28,31.28,54,76,5.77
5915327,Cap-aux-Meules,CA,47.38,-61.86,1619470765,41.9,42.8,100,100,10.36
2015306,Tiksi,RU,71.69,128.87,1619470765,16.3,16.3,94,100,9.55
1850523,Tateyama,JP,34.98,139.87,1619470765,50.11,53.6,66,75,1.14
2344245,Dutse,NG,11.76,9.34,1619470765,87.44,87.44,13,0,7.7
1714733,Dingle,PH,11.0,122.67,1619470766,74.71,74.71,88,78,6.6
2425791,Kibala,TD,9.11,18.35,1619470766,89.6,89.6,45,0,3.11
553766,Kamenka,RU,51.32,42.77,1619470766,44.01,44.01,84,99,10.6
1861084,Izumo,JP,35.37,132.77,1619470767,39.2,39.2,93,75,3.44
1168700,Ormara,PK,25.21,64.64,1619470767,80.69,80.69,81,15,4.29
3137469,Sørland,NO,67.67,12.69,1619470767,32.0,32.0,86,40,3.44
3837213,San Juan,AR,-31.54,-68.54,1619470768,75.92,75.92,32,0,7.14
5109177,Binghamton,US,42.1,-75.92,1619470768,49.14,51.01,29,1,20.71
3126369,Carballo,ES,43.21,-8.69,1619470768,53.58,55.0,95,98,5.99
6255012,Flinders,AU,-34.58,150.86,1619470768,52.16,53.01,88,1,1.01
3374083,Bathsheba,BB,13.22,-59.52,1619470769,82.4,82.4,57,40,17.27
2093967,Kimbe,PG,-5.55,150.14,1619470769,77.56,77.56,85,98,2.57
1502697,Kondinskoye,RU,59.65,67.41,1619470769,38.5,38.5,70,79,9.26
2426370,Umm Hājar,TD,13.3,19.7,1619470770,88.95,88.95,8,67,9.33
2377457,Nouadhibou,MR,20.93,-17.03,1619470770,66.2,66.2,82,0,14.97
2027244,Bagdarin,RU,54.43,113.6,1619470770,26.67,26.67,70,100,10.56
5859699,College,US,64.86,-147.8,1619470771,54.36,59.0,35,75,3.69
2172797,Cairns,AU,-16.92,145.77,1619470584,74.08,75.2,83,75,11.5
967106,Oudtshoorn,ZA,-33.59,22.2,1619470771,60.8,60.8,94,90,2.3
1788852,Xining,CN,36.62,101.77,1619470772,38.21,38.21,51,85,2.17
3991328,Puerto Vallarta,MX,20.62,-105.23,1619470772,82.4,82.4,69,75,13.8
3386213,Touros,BR,-5.2,-35.46,1619470679,82.4,82.4,74,20,11.5
60019,Eyl,SO,7.98,49.82,1619470773,83.55,83.55,71,95,4.88
1529102,Ürümqi,CN,43.8,87.6,1619470565,50.0,50.0,57,0,2.24
4920986,Griffith,US,41.53,-87.42,1619470774,76.06,77.0,31,1,25.32
281133,Gaza,PS,31.5,34.47,1619470540,62.31,66.0,100,80,8.55
1802238,Loudi,CN,27.73,111.99,1619470774,58.5,58.5,93,78,0.45
2184707,Wanaka,NZ,-44.7,169.15,1619470774,37.0,37.0,99,4,1.01
2291580,Bingerville,CI,5.36,-3.89,1619470775,84.2,84.2,84,20,5.75
3557758,Guane,CU,22.2,-84.09,1619470775,79.99,79.99,72,61,5.93
2012956,Yerbogachën,RU,61.28,108.01,1619470775,14.36,14.36,89,11,6.11
110690,Faya,SA,18.39,42.45,1619470776,58.1,59.0,82,0,1.9
6182962,Windsor,CA,42.3,-83.02,1619470501,53.02,55.99,46,40,12.66
2335727,Kaduna,NG,10.52,7.44,1619470776,83.93,83.93,46,48,5.26
6050066,La Ronge,CA,55.1,-105.28,1619470776,51.8,51.8,22,100,8.05
1261853,Narasannapeta,IN,18.42,84.05,1619470777,78.46,78.46,84,10,6.64
3428068,San Vicente,AR,-26.62,-54.13,1619470777,60.24,60.24,55,0,3.67
5017822,Bemidji,US,47.47,-94.88,1619470777,40.05,41.0,87,90,9.22
469960,Vytegra,RU,61.01,36.45,1619470779,35.11,35.11,97,100,6.67
3471451,Arraial do Cabo,BR,-22.97,-42.03,1619470779,77.0,77.0,83,40,4.61
544084,Koslan,RU,63.46,48.9,1619470779,38.8,38.8,95,100,4.47
3939168,Huarmey,PE,-10.07,-78.15,1619470780,71.73,71.73,75,10,9.82
1278969,Along,IN,28.17,94.77,1619470780,65.75,65.75,62,15,2.44
3451138,Rio Grande,BR,-32.03,-52.1,1619470780,66.83,69.8,52,20,13.8
361291,Hurghada,EG,27.26,33.81,1619470781,77.0,77.0,25,0,10.36
2332079,Lere,NG,10.39,8.57,1619470781,82.69,82.69,49,69,4.56
2521582,Arona,ES,28.1,-16.68,1619470781,64.85,68.0,73,40,6.91
1226260,Trincomalee,LK,8.57,81.23,1619470781,81.48,81.48,77,62,8.79
932183,Quthing,LS,-30.4,27.7,1619470782,57.9,57.9,34,100,4.47
2925259,Frechen,DE,50.92,6.82,1619470782,48.15,50.0,43,40,4.61
2658904,Saanen,CH,46.49,7.26,1619470782,50.0,53.01,62,100,4.25
5972291,Havre-St-Pierre,CA,50.23,-63.6,1619470783,39.2,39.2,93,90,31.07
2063036,Port Lincoln,AU,-34.73,135.87,1619470783,60.21,60.21,80,98,5.48
2361477,Dédougou,BF,12.47,-3.47,1619470507,88.38,88.38,36,76,6.98
5024719,Duluth,US,46.78,-92.11,1619470720,34.52,35.6,93,90,12.66
2090021,Namatanai,PG,-3.67,152.43,1619470783,80.96,80.96,77,66,2.98
2126710,Beringovskiy,RU,63.05,179.32,1619470657,32.29,32.29,93,96,3.27
3472638,Alegrete,BR,-29.78,-55.79,1619470784,63.64,63.64,52,0,6.67
3452179,Quaraí,BR,-30.39,-56.45,1619470784,62.73,62.73,59,0,6.4
3855065,General Roca,AR,-39.03,-67.58,1619470784,71.6,71.6,49,0,5.75
3372472,Vila Franca do Campo,PT,37.72,-25.43,1619470785,60.8,60.8,77,75,8.05
3354077,Opuwo,NA,-18.06,13.84,1619470785,65.64,65.64,48,9,3.42
4566022,Loíza,PR,18.43,-65.88,1619470664,83.82,87.8,48,40,14.97
6137462,Saint-Augustin,CA,51.23,-58.65,1619470786,41.07,41.07,80,100,30.49
2035836,Manzhouli,CN,49.6,117.43,1619470786,33.37,33.37,65,100,27.42
3381428,Iracoubo,GF,5.48,-53.2,1619470786,77.41,77.41,88,100,11.16
518488,Novonikolayevskiy,RU,50.97,42.36,1619470787,44.01,44.01,84,98,9.24
2358382,Léo,BF,11.1,-2.1,1619470787,86.72,86.72,37,71,3.98
1623197,Tual,ID,-5.67,132.75,1619470787,82.99,82.99,57,69,4.23
2514301,Mahon,ES,39.89,4.27,1619470711,59.0,59.0,82,20,13.8
1717348,Claveria,PH,18.61,121.08,1619470788,72.93,72.93,83,73,12.17
3702269,Bisira,PA,8.52,-81.71,1619470788,63.23,63.23,85,100,5.53
1489209,Troitskoye,RU,52.98,84.68,1619470788,43.47,43.47,89,100,11.86
2126785,Belaya Gora,RU,68.53,146.42,1619470789,17.76,17.76,84,99,5.73
2537881,Safi,MA,32.3,-9.24,1619470789,63.86,63.86,84,2,15.79
2110560,Yamada,JP,39.47,141.95,1619470789,40.59,40.59,51,0,4.59
367544,Sawākin,SD,19.11,37.33,1619470790,83.52,83.52,70,27,0.83
4094490,Tuskegee,US,32.42,-85.69,1619470790,78.4,81.0,41,1,5.75
1803560,Lingao,CN,19.91,109.69,1619470790,75.56,75.56,91,100,9.26
2064735,Nhulunbuy,AU,-12.23,136.77,1619470515,77.0,77.0,94,75,1.14
2037886,Dandong,CN,40.13,124.39,1619470790,50.27,50.27,95,100,8.97
2122605,Okhotsk,RU,59.38,143.3,1619470791,21.42,21.42,79,90,2.68
1254046,Tura,IN,25.52,90.22,1619470791,77.99,77.99,31,93,4.68
2685750,Östersund,SE,63.18,14.64,1619470791,32.0,32.0,59,90,5.75
3939761,Hualmay,PE,-11.1,-77.61,1619470792,70.52,70.52,77,12,9.82
2120591,Tilichiki,RU,60.47,166.1,1619470792,30.29,30.29,99,100,2.48
1630639,Pringsewu,ID,-5.36,104.97,1619470792,72.27,72.27,96,56,0.89
607610,Zhangaözen,KZ,43.3,52.8,1619470793,61.61,61.61,50,39,2.59
2269594,Cascais,PT,38.7,-9.42,1619470793,61.07,62.01,88,20,6.91
5359864,Isla Vista,US,34.41,-119.86,1619470793,64.33,66.99,52,20,17.27
1529376,Korla,CN,41.76,86.15,1619470793,54.63,54.63,34,16,6.51
2277060,Gbarnga,LR,7.0,-9.47,1619470794,76.06,76.06,88,37,3.87
490554,Sorochinsk,RU,52.43,53.16,1619470794,44.24,44.24,56,87,4.65
1501377,Kungurtug,RU,50.6,97.52,1619470794,14.22,14.22,89,56,2.42
239899,Bria,CF,6.54,21.99,1619470795,71.19,71.19,80,13,1.92
3398480,Gurupá,BR,-1.41,-51.64,1619470795,77.52,77.52,93,95,2.19
3580477,West Bay,KY,19.37,-81.42,1619470795,84.2,84.2,74,20,10.36
3105522,Bereda,ES,43.27,-7.54,1619470796,53.01,53.01,100,59,3.0
153209,Moshi,TZ,-3.35,37.33,1619470796,71.06,71.06,81,96,2.62
4031637,Lavrentiya,RU,65.58,-171.0,1619470796,30.7,30.7,80,98,1.25
1786855,Yatou,CN,37.15,122.38,1619470797,53.06,53.06,95,100,14.16
247659,Qafqafā,JO,32.35,35.94,1619470797,57.2,57.2,72,20,6.91
2511180,Santa Cruz de La Palma,ES,28.68,-17.76,1619470797,65.19,69.8,68,90,4.61
1717787,Catuday,PH,16.29,119.81,1619470798,76.98,76.98,75,44,7.65
3698359,Chicama,PE,-7.84,-79.15,1619470798,64.4,64.4,88,40,11.5
5255068,Greenfield,US,42.96,-88.01,1619470799,61.11,68.0,54,75,20.71
4034496,Fare,PF,-16.7,-151.02,1619470799,80.92,80.92,67,93,3.62
102527,Sakakah,SA,29.97,40.21,1619470799,82.4,82.4,13,11,8.05
3472848,Águas Vermelhas,BR,-15.75,-41.46,1619470800,74.34,74.34,64,95,1.25
5389519,Sacramento,US,38.47,-121.32,1619470736,64.2,66.99,36,20,6.91
5914132,Campbell River,CA,50.02,-125.24,1619470800,53.47,55.99,76,75,3.44
1800498,Mingshui,CN,36.72,117.5,1619470800,60.01,60.01,81,80,6.71
2027042,Batagay-Alyta,RU,67.8,130.41,1619470801,28.08,28.08,97,100,3.62
1213493,Teluk Nibung,ID,3.0,99.82,1619470801,75.2,75.2,92,98,3.96
145233,Ābdānān,IR,32.99,47.42,1619470802,75.85,75.85,22,64,3.58
1651591,Amahai,ID,-3.33,128.92,1619470802,78.01,78.01,92,55,2.86
6111696,Port-Cartier,CA,50.03,-66.87,1619470802,43.63,44.01,93,90,16.11
1637510,Loa Janan,ID,-0.58,117.09,1619470803,72.86,72.86,99,83,0.69
1788268,Shishou,CN,29.72,112.42,1619470803,58.59,58.59,90,100,2.08
3380290,Sinnamary,GF,5.38,-52.95,1619470804,77.29,77.29,89,100,10.71
2347468,Bauchi,NG,10.5,10.0,1619470804,86.81,86.81,31,68,3.94
1007311,Durban,ZA,-29.86,31.03,1619470677,65.53,69.01,88,20,3.44
4151316,Clearwater,US,27.97,-82.8,1619470805,81.93,87.01,54,40,9.22
3533445,Acatlán,MX,20.15,-98.45,1619470805,73.74,73.74,52,82,9.75
1224061,Wattegama,LK,6.8,81.48,1619470806,73.74,73.74,95,27,2.64
5110092,Brewster,US,41.4,-73.62,1619470798,57.04,60.01,24,1,10.36
5949568,Estevan,CA,49.13,-102.98,1619470808,51.04,53.6,53,90,3.44
1855540,Naze,JP,28.37,129.48,1619470808,62.55,62.55,66,3,11.03
556268,Ostrovnoy,RU,68.05,39.51,1619470808,30.06,30.06,74,100,17.25
1259385,Port Blair,IN,11.67,92.75,1619470809,81.05,81.05,75,76,4.81
3421719,Narsaq,GL,60.92,-46.05,1619470809,37.4,37.4,87,75,10.36
2014743,Tygda,RU,53.12,126.33,1619470809,49.23,49.23,43,97,13.22
3117813,Lugo,ES,43.0,-7.5,1619470810,53.01,53.01,100,90,4.0
2022394,Kholbon,RU,51.88,116.25,1619470810,34.47,34.47,83,100,14.97
2093685,Kokopo,PG,-4.35,152.26,1619470810,78.6,78.6,79,15,3.42
4173838,Spring Hill,US,28.48,-82.53,1619470735,86.38,88.0,37,20,12.66
5703673,Elko,US,41.0,-115.5,1619470811,41.18,44.6,49,75,13.8
751816,Artvin Province,TR,41.17,41.83,1619470811,50.0,50.0,93,75,9.22
1738050,Marabu,MY,4.41,114.01,1619470811,77.0,77.0,94,20,3.44
2146219,Hervey Bay,AU,-25.3,152.85,1619470812,64.24,66.0,88,14,6.91
4470244,Havelock,US,34.88,-76.9,1619470678,69.39,73.4,46,1,6.91
448149,Sinjār,IQ,36.32,41.88,1619470812,72.21,72.21,31,51,7.29
2018735,Nyurba,RU,63.28,118.33,1619470813,14.92,14.92,87,97,8.95
114259,Sīrjān,IR,29.45,55.68,1619470813,66.76,66.76,34,92,5.53
3346015,Sumbe,AO,-11.21,13.84,1619470813,79.54,79.54,87,6,5.5
6100069,Peace River,CA,56.25,-117.29,1619470814,35.6,35.6,60,90,12.66
2181625,Te Anau,NZ,-45.42,167.72,1619470814,37.63,37.63,90,75,1.05
1514125,Dustlik,UZ,40.52,68.04,1619470815,65.61,65.61,45,0,3.58
2853574,Pirmasens,DE,49.2,7.61,1619470815,43.56,46.4,56,1,6.4
1797551,Qinzhou,CN,21.95,108.62,1619470815,68.16,68.16,94,100,7.4
2299233,Kpandu,GH,7.0,0.29,1619470815,79.72,79.72,84,95,10.07
2109701,Auki,SB,-8.77,160.7,1619470816,81.0,81.0,83,81,0.78
2629833,Husavik,IS,66.04,-17.34,1619470634,37.4,37.4,75,0,6.91
5500539,Boulder City,US,35.98,-114.83,1619470771,65.05,66.0,27,1,11.5
2260535,Brazzaville,CG,-4.27,15.28,1619470817,78.53,78.53,78,99,1.14
484396,Tarasovskiy,RU,48.73,40.36,1619470817,43.2,43.2,90,91,9.84
3996426,Matamoros,MX,25.53,-103.25,1619470709,95.0,95.0,6,75,5.75
