id,city,country,lat,lng,date,temp,max temp,humidity,cloudiness,wind speed
1855342,Nishihara,JP,26.18,127.76,1619481519,68.97,69.8,68,75,12.66
3662342,São Gabriel da Cachoeira,BR,-0.13,-67.09,1619481551,74.34,74.34,97,95,5.08
3707249,La Mata,PA,8.08,-80.88,1619481551,81.63,81.63,58,100,7.63
4946620,Palmer,US,42.16,-72.33,1619481040,50.74,53.6,28,20,14.97
5106841,Albany,US,42.6,-73.97,1619480987,47.52,48.99,31,1,11.01
5880054,Barrow,US,71.29,-156.79,1619481342,21.2,21.2,79,1,19.57
1630789,Pontianak,ID,-0.03,109.33,1619481552,75.2,75.2,100,40,2.64
4032243,Vaini,TO,-21.2,-175.2,1619480791,77.0,77.0,88,75,6.91
1015776,Bredasdorp,ZA,-34.53,20.04,1619480992,53.6,53.6,94,41,2.3
3355672,Lüderitz,NA,-26.65,15.16,1619481088,60.17,60.17,85,80,8.41
2015306,Tiksi,RU,71.69,128.87,1619481023,16.12,16.12,89,100,12.15
3833367,Ushuaia,AR,-54.8,-68.3,1619480875,42.8,42.8,87,75,3.44
6201424,Mataura,NZ,-46.19,168.86,1619480990,46.0,46.0,75,93,11.99
789875,Jaša Tomić,RS,45.45,20.86,1619481553,46.47,46.99,76,100,6.91
2063036,Port Lincoln,AU,-34.73,135.87,1619481046,65.01,65.01,65,80,6.96
3874787,Punta Arenas,CL,-53.15,-70.92,1619480992,44.29,44.6,93,90,4.61
2075265,Busselton,AU,-33.65,115.33,1619480838,66.87,66.87,73,99,2.1
4030556,Rikitea,PF,-23.12,-134.97,1619480973,77.74,77.74,73,83,7.16
2014718,Tynda,RU,55.17,124.72,1619481554,36.25,36.25,96,100,5.48
6185377,Yellowknife,CA,62.46,-114.35,1619480905,10.49,10.99,52,40,18.41
5955902,Fort Nelson,CA,58.81,-122.7,1619481508,24.8,24.8,80,90,11.5
1651810,Airai,TL,-8.93,125.41,1619481181,66.34,66.34,50,52,1.9
2094342,Kavieng,PG,-2.57,150.8,1619480838,84.04,84.04,69,46,2.46
2126123,Chokurdakh,RU,70.63,147.92,1619480837,24.64,24.64,84,99,3.94
2446796,Bilma,NE,18.69,12.92,1619481194,86.7,86.7,11,14,7.43
5746545,Portland,US,45.52,-122.68,1619480982,56.35,59.0,62,75,5.75
2136825,Isangel,VU,-19.55,169.27,1619481108,82.4,82.4,69,75,6.91
607610,Zhangaözen,KZ,43.3,52.8,1619481555,61.32,61.32,50,66,7.92
293842,Kiryat Gat,IL,31.61,34.76,1619481555,61.54,63.0,100,74,7.2
6255012,Flinders,AU,-34.58,150.86,1619481141,67.69,70.0,74,1,1.01
5848280,Kapaa,US,22.08,-159.32,1619480903,76.14,78.8,65,1,11.5
6170031,Tuktoyaktuk,CA,69.45,-133.04,1619481006,10.4,10.4,72,1,16.11
3381041,Mana,GF,5.66,-53.78,1619481557,77.27,77.27,90,100,11.01
4035715,Avarua,CK,-21.21,-159.78,1619480882,82.4,82.4,74,63,8.05
2016307,Solnechnyy,RU,50.72,136.63,1619481557,48.81,48.81,44,87,6.91
6160603,Swift Current,CA,50.28,-107.8,1619481350,53.6,53.6,37,90,14.97
3430863,Mar del Plata,AR,-38.0,-57.56,1619481501,55.24,55.4,82,0,4.25
3897347,Calama,CL,-22.47,-68.93,1619481164,59.0,59.0,23,0,20.71
1067565,Beloha,MG,-25.17,45.05,1619480997,70.63,70.63,73,0,4.7
1513087,Nurota,UZ,40.56,65.69,1619481558,59.0,59.0,44,0,11.5
1649150,Bengkulu,ID,-3.8,102.27,1619481088,75.94,75.94,86,84,3.83
2074865,Carnarvon,AU,-24.87,113.63,1619480988,62.6,62.6,67,0,6.91
3401148,Cururupu,BR,-1.83,-44.87,1619481503,74.93,74.93,93,90,2.66
585031,Shaki,AZ,41.08,47.17,1619481559,56.3,59.0,88,40,7.92
934322,Mahébourg,MU,-20.41,57.7,1619480769,77.0,77.0,94,75,14.97
2392087,Porto-Novo,BJ,6.5,2.6,1619481040,84.2,84.2,79,20,10.36
6096551,Pangnirtung,CA,66.15,-65.71,1619481032,34.74,34.74,99,100,3.29
2155415,New Norfolk,AU,-42.78,147.06,1619481476,55.99,62.01,76,10,3.62
3655131,La Libertad,EC,-2.23,-80.9,1619481559,77.0,77.0,83,0,9.22
2206939,Bluff,NZ,-46.6,168.33,1619481021,46.99,46.99,74,54,11.99
866062,Iskateley,RU,67.68,53.15,1619481508,35.67,35.67,98,100,5.44
692944,Stanislav,UA,46.57,32.15,1619481560,43.97,43.97,63,17,9.4
4513583,Hamilton,US,39.18,-84.53,1619480960,72.18,73.4,35,1,9.22
5354943,Half Moon Bay,US,37.46,-122.43,1619481114,56.19,59.0,67,40,14.97
1791779,Wanning,CN,18.8,110.4,1619481560,78.76,78.76,86,100,5.01
1282256,Hithadhoo,MV,-0.6,73.08,1619480838,82.29,82.29,63,12,4.14
2071860,Esperance,AU,-33.87,121.9,1619481123,71.6,71.6,30,100,18.41
3466165,Cidreira,BR,-30.18,-50.21,1619481170,63.46,63.46,72,32,9.66
1684803,Tabuk,PH,17.42,121.44,1619481057,74.77,74.77,77,95,2.62
2177069,Ballina,AU,-28.87,153.57,1619481546,66.43,68.0,77,40,9.22
3831208,Qaanaaq,GL,77.48,-69.36,1619480998,38.52,38.52,70,95,6.87
6089245,Norman Wells,CA,65.28,-126.83,1619480971,17.6,17.6,45,75,6.91
1028434,Quelimane,MZ,-17.88,36.89,1619481561,77.0,77.0,94,20,3.44
2057087,Kupang,ID,-10.17,123.58,1619481561,77.22,77.22,67,72,5.82
3466704,Castro,BR,-24.79,-50.01,1619481017,60.49,60.49,79,61,2.93
3418910,Upernavik,GL,72.79,-56.15,1619481026,34.48,34.48,79,97,4.25
575728,Bogatyye Saby,RU,56.01,50.45,1619481562,35.17,35.17,72,16,4.72
2012956,Yerbogachën,RU,61.28,108.01,1619481562,19.99,19.99,69,10,8.01
3652764,Puerto Ayora,EC,-0.74,-90.35,1619481005,75.7,75.7,86,35,7.07
3443061,Chui,UY,-33.7,-53.46,1619480945,55.11,55.11,77,7,8.01
1715015,Dicabisagan,PH,17.08,122.42,1619481563,76.14,76.14,79,97,6.6
5855927,Hilo,US,19.73,-155.09,1619480893,72.81,78.8,61,40,9.22
3424607,Tasiilaq,GL,65.61,-37.64,1619481024,41.0,41.0,65,75,7.47
1731248,Alugan,PH,12.22,125.48,1619481563,79.77,79.77,78,66,9.15
3378690,Catherinas Lust,GY,6.4,-57.6,1619481564,77.52,77.52,86,95,10.69
1507390,Dikson,RU,73.51,80.55,1619480880,31.8,31.8,98,100,16.91
2110227,Butaritari,KI,3.07,172.79,1619480819,82.96,82.96,76,88,12.37
5882953,Aklavik,CA,68.22,-135.01,1619480993,21.2,21.2,45,100,9.22
3372707,Ribeira Grande,PT,38.52,-28.7,1619481062,60.67,60.67,84,100,3.38
2641843,Neath,GB,51.66,-3.8,1619481564,43.86,45.0,78,88,1.36
4031637,Lavrentiya,RU,65.58,-171.0,1619480852,32.67,32.67,90,81,2.06
2122090,Pevek,RU,69.7,170.31,1619480973,24.71,24.71,91,100,3.67
2455290,Kidal,ML,18.44,1.41,1619481565,88.56,88.56,20,54,9.57
3667202,Tibú,CO,8.64,-72.74,1619481565,80.13,80.13,80,94,1.99
5924351,Clyde River,CA,70.47,-68.59,1619480887,24.8,24.8,100,90,2.3
3871336,Santiago,CL,-33.46,-70.65,1619481331,64.99,66.2,39,0,4.61
3430443,Necochea,AR,-38.55,-58.74,1619481566,55.0,55.0,89,8,1.99
3583446,San Miguel,SV,13.48,-88.18,1619481566,89.62,91.4,58,20,8.05
915285,Kalengwa,ZM,-13.47,25.0,1619481566,61.84,61.84,78,72,2.59
3608828,Iralaya,HN,15.0,-83.23,1619481566,82.4,82.4,78,20,6.91
3369157,Cape Town,ZA,-33.93,18.42,1619480969,61.54,63.0,94,75,12.66
55671,Kismayo,SO,-0.36,42.55,1619481567,81.12,81.12,78,30,7.78
3985710,Cabo San Lucas,MX,22.89,-109.91,1619480937,73.67,78.01,60,90,16.11
686090,Asău,RO,46.43,26.4,1619481070,41.0,41.0,67,100,1.32
3347019,Mossamedes,AO,-15.2,12.15,1619480942,74.86,74.86,73,1,7.02
3460214,Jaguariaíva,BR,-24.25,-49.71,1619481371,61.05,61.05,88,62,4.41
2092164,Lorengau,PG,-2.02,147.27,1619481049,85.15,85.15,66,73,2.42
2629833,Husavik,IS,66.04,-17.34,1619480874,32.0,32.0,86,0,3.44
464790,Zapolyarnyy,RU,69.42,30.81,1619481568,28.4,28.4,80,96,6.91
2126710,Beringovskiy,RU,63.05,179.32,1619481188,33.12,33.12,92,69,4.5
3372964,Lagoa,PT,39.05,-27.98,1619481139,59.58,59.58,91,94,12.03
3840300,Presidencia Roque Sáenz Peña,AR,-26.79,-60.44,1619481568,55.74,55.74,66,0,4.85
1506268,Gornopravdinsk,RU,60.05,69.9,1619481569,33.71,33.71,86,65,6.17
5919850,Chapais,CA,49.78,-74.85,1619481054,35.6,35.6,64,40,10.36
2180815,Tuatapere,NZ,-46.13,167.68,1619480906,46.0,46.0,75,97,11.99
4020109,Atuona,PF,-9.8,-139.03,1619481491,79.84,79.84,74,82,14.61
1264976,Leh,IN,34.17,77.58,1619481498,31.12,31.12,38,7,3.13
1783988,Mizhou,CN,35.99,119.4,1619481569,59.67,59.67,81,65,9.62
2757857,Dalen,NL,52.7,6.76,1619481569,34.59,36.0,84,95,4.0
4628735,Hendersonville,US,36.3,-86.62,1619481570,73.63,77.0,36,75,14.97
3451138,Rio Grande,BR,-32.03,-52.1,1619480958,55.99,55.99,89,85,12.28
1799962,Nanjing,CN,32.06,118.78,1619481570,60.8,60.8,100,90,6.71
1633419,Padang,ID,-0.95,100.35,1619481525,75.2,75.2,94,20,3.44
5282297,Bethel,US,41.37,-73.41,1619481019,56.68,59.0,19,1,9.22
4470244,Havelock,US,34.88,-76.9,1619481571,64.36,66.2,59,1,9.22
3868308,Vicuña,CL,-30.03,-70.71,1619481341,59.0,59.0,77,0,5.75
2171099,Codrington,AU,-38.27,141.97,1619481528,58.73,58.73,70,63,1.52
705852,Kyrylivka,UA,46.38,35.37,1619481571,42.58,42.58,64,14,6.4
2163355,Hobart,AU,-42.88,147.33,1619480817,58.06,62.01,62,20,6.91
5404476,Ukiah,US,39.15,-123.21,1619481572,59.43,62.6,39,75,11.5
2963848,Greystones,IE,53.14,-6.06,1619481572,50.0,51.8,81,75,12.66
3433715,Goya,AR,-29.14,-59.26,1619481572,57.61,57.61,76,14,4.65
779554,Honningsvåg,NO,70.98,25.97,1619481189,33.48,33.48,58,100,13.31
3924679,Vilhena,BR,-12.74,-60.15,1619481572,71.6,71.6,94,75,9.22
3445026,Vila Velha,BR,-20.33,-40.29,1619481037,78.8,78.8,89,40,2.3
5866583,Saint Paul Harbor,US,57.79,-152.41,1619481011,42.8,42.8,81,90,12.66
6165406,Thompson,CA,55.74,-97.86,1619481068,48.2,48.2,49,20,11.5
2070998,Geraldton,AU,-28.77,114.6,1619481010,64.4,64.4,52,26,10.36
3366880,Hermanus,ZA,-34.42,19.23,1619481573,62.01,62.01,85,67,4.74
2455216,Kita,ML,13.03,-9.49,1619481306,91.15,91.15,27,88,3.44
4012593,Creel,MX,27.75,-107.63,1619481574,63.45,63.45,16,41,19.28
1684606,Taganak,PH,6.08,118.3,1619481574,77.0,77.0,94,20,3.44
1252783,Yārāda,IN,17.65,83.27,1619481574,80.6,80.6,89,20,2.3
1516048,Khovd,MN,48.01,91.64,1619481208,35.33,35.33,29,35,2.06
1861280,Itoman,JP,26.12,127.67,1619481575,69.26,69.8,73,75,9.22
2738381,Lata,PT,40.16,-8.33,1619480980,57.69,59.0,87,27,0.54
2729907,Longyearbyen,SJ,78.22,15.64,1619480853,19.4,19.4,63,40,10.36
256155,Palekastro,GR,35.2,26.25,1619481575,57.97,57.97,66,1,13.67
964432,Port Alfred,ZA,-33.59,26.89,1619480884,67.15,67.15,78,99,11.79
5557293,Sitka,US,57.05,-135.33,1619481013,51.8,51.8,58,40,4.61
2012780,Zabaykal'sk,RU,49.63,117.32,1619481576,35.67,35.67,56,93,29.28
5122534,Jamestown,US,42.1,-79.24,1619481019,46.4,46.4,42,40,11.5
6148373,Sioux Lookout,CA,50.1,-91.92,1619481487,35.6,35.6,75,90,6.91
604490,Luleå,SE,65.58,22.15,1619481576,33.8,33.8,69,90,5.75
917688,Chongwe,ZM,-15.33,28.68,1619481576,62.96,62.96,73,62,2.57
1106677,Bambous Virieux,MU,-20.34,57.76,1619480937,77.0,77.0,94,75,14.97
5983720,Iqaluit,CA,63.75,-68.51,1619480978,24.39,24.8,80,90,24.16
2962304,Nenagh,IE,52.86,-8.2,1619481577,47.88,48.99,87,40,5.75
108410,Riyadh,SA,24.69,46.72,1619481022,80.4,82.4,20,0,4.61
5044290,Saint Anthony,US,45.02,-93.22,1619481059,45.59,46.99,81,90,10.36
1814093,Dali,CN,25.7,100.18,1619481208,61.05,61.05,46,0,3.74
777019,Vardø,NO,70.37,31.11,1619480984,31.86,31.86,79,100,16.49
2181625,Te Anau,NZ,-45.42,167.72,1619481157,44.49,44.49,69,66,0.43
3452623,Porto União,BR,-26.24,-51.08,1619481486,52.39,52.39,84,5,1.45
1701054,Marawi,PH,8.0,124.29,1619481575,79.0,79.0,81,100,5.01
2022572,Khatanga,RU,71.97,102.5,1619481037,21.09,21.09,94,100,16.87
1637001,Biak,ID,-0.91,122.88,1619481578,80.19,80.19,74,65,4.83
3389822,Salinópolis,BR,-0.61,-47.36,1619481578,79.29,79.29,83,100,8.16
2630299,Hofn,IS,64.25,-15.21,1619480991,38.44,38.44,69,21,0.63
3892454,Diego de Almagro,CL,-26.37,-70.05,1619481579,60.78,60.78,57,0,1.99
3981391,Tomatlán,MX,19.93,-105.25,1619481579,85.53,85.53,35,100,10.09
2654970,Brae,GB,60.4,-1.35,1619480999,44.6,44.6,81,75,13.8
1177446,Gwadar,PK,25.12,62.33,1619481579,80.91,80.91,71,7,7.67
2270385,Camacha,PT,33.08,-16.33,1619481481,62.6,62.6,82,40,11.5
3932145,Pisco,PE,-13.7,-76.22,1619480910,65.68,66.2,82,40,9.22
546105,Nikolskoye,RU,59.7,30.79,1619480844,39.65,41.0,75,75,6.71
3374210,São Filipe,CV,14.9,-24.5,1619480811,71.56,71.56,76,17,9.51
3374083,Bathsheba,BB,13.22,-59.52,1619481128,78.8,78.8,65,20,13.8
653627,Kauhajoki,FI,62.43,22.18,1619481580,28.2,28.99,86,90,2.3
6137462,Saint-Augustin,CA,51.23,-58.65,1619481470,37.53,37.53,82,100,33.98
210939,Luebo,CD,-5.35,21.42,1619481580,70.07,70.07,98,78,2.1
3520994,Puerto Escondido,MX,15.85,-97.07,1619481476,87.8,87.8,66,40,4.61
964420,Port Elizabeth,ZA,-33.92,25.57,1619480837,62.6,62.6,88,75,5.75
2020584,Magistral'nyy,RU,56.17,107.45,1619481518,25.93,25.93,66,42,11.81
3870243,Taltal,CL,-25.4,-70.48,1619481581,63.39,63.39,79,10,4.27
364027,Wagar,SD,16.15,36.2,1619481581,88.14,88.14,37,88,5.5
2030065,Mandalgovi,MN,45.76,106.27,1619481582,30.87,30.87,63,99,16.4
3887127,Iquique,CL,-20.22,-70.14,1619481582,66.2,66.2,68,0,12.66
2192362,Christchurch,NZ,-43.53,172.63,1619481523,52.59,54.0,62,20,12.66
3979505,Guadalupe Victoria,MX,32.29,-115.11,1619481582,66.52,69.01,48,90,6.91
3440777,Rocha,UY,-34.48,-54.33,1619481053,52.97,52.97,82,0,5.7
2264557,Ponta do Sol,PT,32.67,-17.1,1619480985,56.61,61.0,81,72,1.99
1056899,Sambava,MG,-14.27,50.17,1619481523,74.53,74.53,90,53,8.66
552830,Karakulino,RU,56.01,53.71,1619481583,36.66,36.66,67,22,5.01
3663503,Manicoré,BR,-5.81,-61.3,1619481583,80.6,80.6,89,40,2.3
210379,Lusambo,CD,-4.97,23.45,1619481583,71.08,71.08,94,83,1.21
1819729,Hong Kong,HK,22.29,114.16,1619480716,73.56,75.0,88,100,1.01
2098329,Daru,PG,-9.08,143.21,1619481200,82.42,82.42,76,88,3.09
3865086,Bahía Blanca,AR,-38.72,-62.27,1619481356,59.41,59.41,60,1,6.73
2126199,Cherskiy,RU,68.75,161.3,1619480952,22.75,22.75,81,63,8.52
2210554,Sirte,LY,31.21,16.59,1619481584,67.46,67.46,51,59,14.99
2618795,Klaksvík,FO,62.23,-6.59,1619480912,39.2,39.2,81,100,13.8
2127202,Anadyr,RU,64.75,177.48,1619481126,30.09,30.2,93,0,4.47
1735902,Sibu,MY,2.3,111.82,1619481199,77.0,77.0,94,20,1.14
1491291,Sosnovoborsk,RU,56.13,93.36,1619481585,30.2,30.2,86,0,2.24
2377457,Nouadhibou,MR,20.93,-17.03,1619481277,66.2,66.2,88,0,14.97
149658,Tabora,TZ,-5.02,32.8,1619481585,68.0,68.0,94,40,2.01
3922037,Caranavi,BO,-15.82,-67.55,1619481585,60.66,60.66,88,100,1.19
2025456,Chernyshevskiy,RU,63.01,112.47,1619481586,15.64,15.64,71,9,8.55
3397763,Jacareacanga,BR,-6.22,-57.75,1619481586,73.51,73.51,98,100,2.21
1254046,Tura,IN,25.52,90.22,1619480809,76.82,76.82,43,89,7.4
1263649,Manoharpur,IN,27.3,75.95,1619481586,78.8,78.8,21,0,2.3
3471451,Arraial do Cabo,BR,-22.97,-42.03,1619480998,77.0,77.0,83,40,3.44
5546220,Saint George,US,37.1,-113.58,1619481006,57.88,59.0,44,20,14.97
2172797,Cairns,AU,-16.92,145.77,1619481587,78.01,79.0,78,90,11.5
2527087,Tiznit Province,MA,29.58,-9.5,1619481522,56.86,56.86,86,26,2.39
4972220,Millinocket,US,45.66,-68.71,1619481301,37.4,37.4,65,90,16.11
5563839,Fortuna,US,40.6,-124.16,1619481587,55.94,59.0,62,1,10.36
3385077,Conde,BR,-7.26,-34.91,1619481588,77.0,77.0,94,0,5.75
2019135,Nizhniy Kuranakh,RU,58.84,125.49,1619481316,34.07,34.07,98,100,8.16
6145951,Shellbrook,CA,53.22,-106.4,1619481588,57.2,57.2,21,90,23.02
6137749,Sainte-Anne-des-Monts,CA,49.12,-66.49,1619481588,41.0,41.0,93,100,24.16
3405006,Bragança,BR,-1.05,-46.77,1619481589,74.17,74.17,94,71,1.19
572559,Borinskoye,RU,52.46,39.37,1619481589,38.17,38.17,93,100,11.68
5975004,High Level,CA,58.52,-117.14,1619481589,23.0,23.0,50,90,13.8
3430708,Mercedes,AR,-34.65,-59.43,1619481467,56.34,59.0,65,19,1.01
3144987,Beisfjord,NO,68.38,17.6,1619481589,30.2,30.2,100,79,1.05
5850554,Makakilo City,US,21.35,-158.09,1619481039,79.77,82.4,57,40,11.5
2644605,Lerwick,GB,60.15,-1.15,1619481517,44.6,44.6,81,75,13.8
3855075,General Pico,AR,-35.66,-63.76,1619481590,55.69,55.69,76,0,7.63
1006984,East London,ZA,-33.02,27.91,1619481000,68.45,68.45,81,97,7.34
3883457,Lebu,CL,-37.62,-73.65,1619480999,54.05,54.05,87,3,10.18
556268,Ostrovnoy,RU,68.05,39.51,1619481086,29.79,29.79,71,100,14.85
2173911,Broken Hill,AU,-31.95,141.43,1619480970,57.2,57.2,58,28,5.75
4566208,Maunabo,PR,18.01,-65.9,1619481591,78.69,80.01,79,33,4.0
1488414,Urengoy,RU,65.97,78.37,1619481591,30.78,30.78,93,58,14.27
64814,Bandarbeyla,SO,9.49,50.81,1619481036,82.6,82.6,72,95,3.85
4034496,Fare,PF,-16.7,-151.02,1619481591,80.67,80.67,68,75,0.54
1490256,Talnakh,RU,69.49,88.4,1619481592,13.39,13.39,79,97,9.71
5467328,Farmington,US,36.73,-108.22,1619481592,68.63,69.8,9,1,19.57
5391959,San Francisco,US,37.77,-122.42,1619481001,55.8,60.8,44,75,26.46
4021858,Guerrero Negro,MX,27.98,-114.06,1619480946,63.12,63.12,59,100,17.02
1513491,Yangi Marg`ilon,UZ,40.43,71.72,1619481118,62.6,62.6,42,0,6.91
2980915,Arrondissement de Saint-Denis,FR,48.92,2.33,1619481592,48.09,51.01,49,0,4.61
1272140,Dwārka,IN,22.24,68.97,1619481129,80.13,80.13,74,0,9.24
3929493,San Juan Bautista,PE,-14.01,-75.74,1619481462,65.55,66.2,82,40,9.22
1636308,Manokwari,ID,-0.87,134.08,1619481187,82.71,82.71,70,96,4.5
1267390,Kavaratti,IN,10.57,72.64,1619481019,83.75,83.75,74,5,8.19
3356832,Henties Bay,NA,-22.12,14.28,1619480909,61.0,61.0,89,18,1.01
1688154,Santa Filomena,PH,9.75,123.34,1619481593,80.85,80.85,77,90,11.23
933995,Souillac,MU,-20.52,57.52,1619480894,77.0,77.0,94,75,14.97
3175096,Laas,IT,46.62,10.7,1619481110,47.16,53.01,100,90,4.61
3448455,São Miguel do Araguaia,BR,-13.28,-50.16,1619481594,75.18,75.18,77,56,1.95
3162108,Ballangen,NO,68.34,16.83,1619481594,30.2,30.2,100,68,0.65
2155562,Nelson Bay,AU,-32.72,152.15,1619481013,62.58,64.0,88,20,10.36
2191562,Dunedin,NZ,-45.87,170.5,1619481433,46.99,46.99,63,55,18.01
2172880,Byron Bay,AU,-28.65,153.62,1619481594,66.99,68.0,77,40,9.22
4499379,Wilmington,US,34.23,-77.94,1619481193,67.26,69.8,43,1,8.05
3517970,Pochutla,MX,15.74,-96.47,1619481595,88.77,89.6,58,40,11.5
3115824,Muros,ES,42.78,-9.06,1619480903,54.07,55.0,88,38,1.01
1242110,Kalmunai,LK,7.42,81.82,1619481369,78.22,78.22,84,29,8.41
5655240,Great Falls,US,47.5,-111.3,1619481595,55.27,55.99,28,40,11.5
1501377,Kungurtug,RU,50.6,97.52,1619481596,22.39,22.39,78,50,1.72
358048,Damietta,EG,31.42,31.81,1619481596,62.6,62.6,82,0,11.5
1695546,Pandan,PH,14.05,124.17,1619481596,78.44,78.44,80,100,13.06
3996737,Rodolfo Sánchez Taboada,MX,31.72,-116.57,1619481597,59.0,59.0,44,100,8.01
478050,Ust'-Kulom,RU,61.69,53.69,1619481028,32.88,32.88,90,67,5.37
147425,Neftçala,AZ,39.37,49.25,1619481550,59.04,59.04,81,53,4.63
3382527,Apatou,GF,5.16,-54.35,1619481597,74.14,74.14,98,100,3.65
80509,Al Bardīyah,LY,31.76,25.09,1619481316,59.31,59.31,77,1,8.41
2077895,Alice Springs,AU,-23.7,133.88,1619481597,60.8,60.8,36,0,4.61
4556050,Woodward,US,36.43,-99.39,1619481598,80.56,82.4,32,1,24.16
2137773,Vao,NC,-22.67,167.48,1619481038,73.6,73.6,66,67,19.55
2276492,Harper,LR,4.38,-7.72,1619480939,80.35,80.35,83,31,7.29
2018069,Peleduy,RU,59.63,112.74,1619481598,21.04,21.04,80,95,6.44
6111862,Port Hardy,CA,50.7,-127.42,1619480714,52.61,55.4,76,40,6.91
4845585,Westport,US,41.14,-73.36,1619481090,56.97,59.0,18,1,21.85
2517820,Estepa,ES,37.29,-4.88,1619481599,56.97,57.99,100,20,2.3
1280037,Shache,CN,38.42,77.24,1619481181,56.62,56.62,21,0,3.56
128234,Kerman,IR,30.28,57.08,1619481599,57.2,57.2,41,0,6.91
3092472,Malbork,PL,54.04,19.03,1619481599,34.47,37.0,73,98,5.75
3899695,Ancud,CL,-41.87,-73.82,1619481529,52.74,57.0,87,90,4.61
3521108,Progreso,MX,21.28,-89.67,1619481137,96.8,96.8,30,40,13.8
2017155,Saskylakh,RU,71.92,114.08,1619481080,7.16,7.16,94,91,4.25
1794480,Shuiji,CN,27.42,118.34,1619481600,63.14,63.14,97,100,2.21
1278985,Alappuzha,IN,9.49,76.33,1619481368,80.73,80.73,81,20,1.97
3395458,Maragogi,BR,-9.01,-35.22,1619481600,77.7,77.7,83,67,6.69
2939820,Coswig,DE,51.13,13.58,1619481601,34.21,35.6,55,0,2.3
1515029,Ulaangom,MN,49.98,92.07,1619481601,33.58,33.58,50,60,4.88
1244926,Hambantota,LK,6.12,81.12,1619481008,79.14,79.14,84,66,6.91
3653967,Muisne,EC,0.6,-80.03,1619481602,76.66,76.66,88,99,4.92
778362,Øksfjord,NO,70.24,22.35,1619481602,27.72,28.4,69,75,6.91
608324,Shetpe,KZ,44.17,52.12,1619481603,60.39,60.39,55,98,10.76
3382160,Cayenne,GF,4.93,-52.33,1619481003,77.59,78.01,94,75,2.3
1491230,Sovetskiy,RU,61.36,63.58,1619481603,36.05,36.05,96,98,7.23
4004293,Ixtapa,MX,20.7,-105.2,1619481018,80.8,81.0,78,75,11.5
3625710,Upata,VE,8.01,-62.4,1619481604,84.99,84.99,67,100,4.0
701075,Myrhorod,UA,49.97,33.61,1619481604,33.17,33.17,81,10,6.82
8079926,Labuhan,ID,-6.88,112.21,1619481134,78.84,78.84,81,49,6.49
6620339,Karratha,AU,-20.74,116.85,1619481155,77.95,77.95,27,0,10.45
3421319,Nuuk,GL,64.18,-51.72,1619481389,35.29,35.6,93,90,8.05
3736808,Iranduba,BR,-3.28,-60.19,1619481596,74.3,75.2,94,75,3.44
3894426,Coyhaique,CL,-45.58,-72.07,1619481606,51.8,51.8,87,75,6.91
533418,Lukovetskiy,RU,64.3,41.92,1619481607,32.0,32.0,80,90,6.71
935215,Saint-Philippe,RE,-21.36,55.77,1619481609,71.56,77.0,78,90,18.41
2620964,Haderslev,DK,55.25,9.49,1619481610,28.81,30.2,86,0,2.3
3423146,Ilulissat,GL,69.22,-51.1,1619481087,48.2,48.2,46,75,12.66
5762718,Belle Fourche,US,44.67,-103.85,1619481612,53.31,55.99,82,90,4.61
2346995,Biu,NG,10.61,12.19,1619481613,86.0,86.0,30,54,3.09
3394745,Mocajuba,BR,-2.58,-49.51,1619481613,74.79,74.79,93,73,2.75
544397,Kortkeros,RU,61.81,51.58,1619481579,32.0,32.0,93,0,6.71
3421765,Nanortalik,GL,60.14,-45.24,1619481056,33.58,33.58,97,95,10.09
1714733,Dingle,PH,11.0,122.67,1619481614,81.41,81.41,69,51,9.31
921906,Domoni,KM,-12.26,44.53,1619481614,78.44,78.44,84,54,3.09
1808198,Heze,CN,35.24,115.44,1619481615,63.95,63.95,56,81,10.83
2128382,Rumoi,JP,43.93,141.64,1619481615,46.92,46.92,58,10,10.94
110690,Abhā,SA,18.22,42.51,1619481616,57.2,57.2,77,0,1.99
4034551,Faanui,PF,-16.48,-151.75,1619481060,81.45,81.45,66,93,4.05
3393536,Olinda,BR,-8.01,-34.86,1619481055,78.8,78.8,73,40,6.91
1813775,Daokou,CN,35.56,114.51,1619481616,66.6,66.6,32,78,8.84
3444201,Puerto Quijarro,BO,-17.78,-57.77,1619481617,73.85,73.85,66,98,2.66
5134295,Rome,US,43.21,-75.46,1619481075,43.54,46.4,31,1,16.11
906044,Monze,ZM,-16.28,27.48,1619481617,62.8,62.8,64,3,2.91
1606585,Samut Songkhram,TH,13.4,99.96,1619481617,77.0,77.0,83,100,7.29
286621,Salalah,OM,17.02,54.09,1619481109,82.4,82.4,74,40,4.61
1283240,Kathmandu,NP,27.72,85.32,1619481512,59.0,59.0,67,20,3.44
485660,Tsimmerbude,RU,54.67,20.13,1619481618,37.2,37.4,87,75,13.42
4031574,Provideniya,RU,64.38,-173.3,1619481018,39.2,39.2,65,0,3.78
1526970,Abay,KZ,49.63,72.85,1619481618,35.6,35.6,87,0,6.71
3150002,Kjøpsvik,NO,68.1,16.37,1619481619,31.12,32.0,100,77,2.73
3984997,San Quintín,MX,30.48,-115.95,1619481619,58.06,58.06,70,100,16.53
3430545,Morón,AR,-34.65,-58.62,1619481205,61.32,63.0,80,41,2.24
4362001,Mayo,US,38.89,-76.51,1619481619,59.07,64.4,25,1,0.87
986717,Kruisfontein,ZA,-34.0,24.73,1619480833,63.0,63.0,87,81,3.0
596238,Palanga,LT,55.92,21.07,1619481620,37.4,37.4,93,75,4.61
2022083,Alekseyevsk,RU,57.84,108.35,1619481620,24.96,24.96,72,100,8.72
1490036,Tashtyp,RU,52.79,89.9,1619481620,37.85,37.85,75,100,3.33
2288105,Grand-Lahou,CI,5.14,-5.02,1619481185,79.7,79.7,89,49,7.38
2152659,Port Macquarie,AU,-31.43,152.92,1619481105,67.95,70.0,70,2,1.99
4723422,Rockport,US,28.02,-97.05,1619481621,75.87,78.8,83,75,14.97
2028164,Deputatsky,RU,69.3,139.9,1619481071,27.37,27.37,90,100,2.46
5847411,Kahului,US,20.89,-156.47,1619481621,76.39,80.6,57,40,5.75
3200768,Gacko,BA,43.17,18.54,1619481622,57.11,57.2,54,40,2.3
2181988,Takapau,NZ,-40.03,176.35,1619481622,54.0,54.0,93,84,7.14
3120211,Jaca,ES,42.57,-0.55,1619481622,48.99,48.99,95,100,1.19
3893629,Coquimbo,CL,-29.95,-71.34,1619481622,59.0,59.0,77,0,5.75
3701882,Río de Jesús,PA,7.98,-81.16,1619481623,79.97,79.97,62,100,6.69
5972762,Hay River,CA,60.82,-115.8,1619481623,7.68,8.6,66,100,9.22
778707,Mehamn,NO,71.04,27.85,1619481097,30.7,30.7,64,98,11.1
3901903,Uyuni,BO,-20.46,-66.83,1619481623,43.56,43.56,20,0,7.43
777682,Skjervøy,NO,70.03,20.97,1619481590,34.83,34.83,65,81,7.74
1648759,Bima,ID,-8.47,118.72,1619481624,79.02,79.02,75,50,4.12
2961459,Skibbereen,IE,51.55,-9.27,1619481624,48.2,48.2,66,20,10.36
2208248,Kaitangata,NZ,-46.28,169.85,1619481614,48.99,48.99,75,72,10.0
3628473,San Cristobal,VE,7.77,-72.22,1619481103,82.4,82.4,69,40,9.22
1489822,Tegul'det,RU,57.31,88.17,1619481625,39.58,39.58,86,100,9.46
934649,Cap Malheureux,MU,-19.98,57.61,1619481187,77.0,77.0,82,100,7.0
3461641,Iaciara,BR,-14.1,-46.63,1619481625,71.11,71.11,86,80,1.79
258091,Loúros,GR,39.16,20.75,1619481626,59.0,59.0,82,20,4.99
2240449,Luanda,AO,-8.84,13.23,1619481591,75.2,75.2,94,40,6.91
3573374,The Valley,AI,18.22,-63.06,1619481068,79.34,80.6,78,40,9.22
2013279,Vostok,RU,46.49,135.88,1619481167,53.13,53.13,29,40,2.93
3404558,Cabedelo,BR,-6.98,-34.83,1619481504,77.0,77.0,94,0,5.75
1861416,Ishigaki,JP,24.34,124.16,1619481626,73.4,73.4,64,20,11.5
1259893,Peranamallūr,IN,12.57,79.43,1619481627,79.97,79.97,83,42,4.54
2120591,Tilichiki,RU,60.47,166.1,1619481627,30.96,30.96,99,100,0.96
2019323,Nerchinskiy Zavod,RU,51.31,119.61,1619481627,36.1,36.1,95,100,4.41
3664980,Boa Vista,BR,2.82,-60.67,1619481620,78.8,78.8,83,75,5.75
1517637,Ushtobe,KZ,45.25,77.98,1619481628,52.12,52.12,46,41,7.54
3361934,Saldanha,ZA,-33.01,17.94,1619481010,62.6,62.6,88,82,18.41
64013,Bosaso,SO,11.28,49.18,1619481628,83.14,83.14,68,56,3.85
3547867,Manzanillo,CU,20.34,-77.12,1619481628,84.22,84.22,54,52,7.9
3664956,Boca do Acre,BR,-8.75,-67.4,1619481629,71.82,71.82,99,56,3.38
935214,Saint-Pierre,RE,-21.34,55.48,1619481064,72.77,77.0,78,90,18.41
1808977,Hanchuan,CN,30.65,113.77,1619481629,59.0,59.0,100,99,4.47
478769,Urdoma,RU,61.75,48.54,1619481630,36.37,36.37,95,90,4.7
1855540,Naze,JP,28.37,129.48,1619481050,69.8,69.8,60,20,9.22
3141667,Roald,NO,62.58,6.13,1619481514,33.91,35.6,75,100,12.66
488881,Starobaltachevo,RU,56.0,55.92,1619481630,35.67,35.67,68,25,6.29
5972291,Havre-St-Pierre,CA,50.23,-63.6,1619481595,41.0,41.0,93,90,20.71
2035601,Mergen,CN,49.18,125.22,1619481631,58.77,58.77,34,83,21.65
1133310,Mīrābād,AF,30.44,61.84,1619481631,78.46,78.46,20,78,7.81
1511309,Asino,RU,57.0,86.15,1619481631,41.65,41.65,89,96,11.59
3347353,Menongue,AO,-14.66,17.69,1619481062,63.72,63.72,58,78,2.44
1052944,Angoche,MZ,-16.23,39.91,1619481632,76.23,76.23,87,53,3.36
3671549,Puerto Asís,CO,0.51,-76.5,1619481632,75.11,75.11,96,99,1.23
2447513,Arlit,NE,18.74,7.39,1619481632,91.98,91.98,9,55,11.3
5397664,South Lake Tahoe,US,38.93,-119.98,1619481633,44.11,51.8,33,75,10.36
1859964,Kaseda-shirakame,JP,31.42,130.32,1619481633,60.39,60.8,63,75,4.61
520599,Nizhniy Kislyay,RU,50.85,40.17,1619481633,41.23,41.23,85,79,16.2
2314705,Kikwit,CD,-5.04,18.82,1619481634,72.28,72.28,91,86,2.1
3393106,Paragominas,BR,-2.97,-47.48,1619481521,73.36,73.36,95,80,3.09
2109701,Auki,SB,-8.77,160.7,1619481634,83.17,83.17,78,98,4.21
4036284,Alofi,NU,-19.06,-169.92,1619480846,86.0,86.0,70,38,13.8
3453494,Piritiba,BR,-11.73,-40.56,1619481634,75.04,75.04,62,96,4.88
3838759,Rivadavia,AR,-33.19,-68.46,1619481635,68.0,68.0,56,0,3.44
1309937,Pyn U Lwin,MM,22.03,96.47,1619481635,86.0,86.0,66,75,8.05
364933,Umm Kaddadah,SD,13.6,26.69,1619481635,78.37,78.37,10,28,11.81
1337607,Kudahuvadhoo,MV,2.67,72.89,1619481636,82.45,82.45,73,74,6.35
3146487,Raudeberg,NO,61.99,5.14,1619481170,37.0,37.0,78,96,6.2
2112802,Hasaki,JP,35.73,140.83,1619481635,56.07,57.99,50,75,5.75
2147756,Swan Hill,AU,-35.34,143.55,1619481636,61.3,61.3,52,0,6.93
2210247,Tripoli,LY,32.88,13.19,1619481636,79.97,79.97,26,100,17.29
1735106,George Town,MY,5.41,100.34,1619481615,75.13,75.2,94,40,1.14
544119,Kosino,RU,58.41,51.28,1619481637,34.5,34.5,90,84,10.0
1327865,Myanmar,MM,22.0,98.0,1619481637,68.13,68.13,76,48,0.31
3380290,Sinnamary,GF,5.38,-52.95,1619481575,77.58,77.58,88,100,11.83
5367788,Lompoc,US,34.64,-120.46,1619481177,56.08,60.8,51,1,17.27
229268,Mbarara,UG,-0.61,30.65,1619481638,63.07,63.07,91,88,1.28
2206854,Gisborne,NZ,-38.65,178.0,1619481638,66.0,66.0,52,63,8.01
2123814,Leningradskiy,RU,69.38,178.42,1619481638,30.9,30.9,85,41,4.68
1337612,Dhidhdhoo,MV,6.88,73.1,1619481639,84.06,84.06,71,35,5.75
5859699,College,US,64.86,-147.8,1619481633,54.46,57.2,30,40,13.8
6049403,Langham,CA,52.37,-106.97,1619481639,59.0,59.0,23,75,16.11
3577430,Road Town,VG,18.42,-64.62,1619481358,79.61,80.6,69,20,6.91
693284,Sokyryany,UA,48.45,27.42,1619481640,37.0,37.0,76,94,1.99
321082,Bingöl,TR,38.88,40.49,1619481640,55.47,55.47,69,2,3.38
3038638,Agde,FR,43.31,3.48,1619481640,54.59,55.4,88,0,2.3
3585968,El Salvador,SV,13.83,-88.92,1619481640,79.21,84.2,79,75,5.75
2015852,Svetlaya,RU,46.54,138.33,1619481641,46.65,46.65,48,17,3.27
1863978,Nishifukuma,JP,33.77,130.47,1619481641,62.11,64.4,45,75,9.22
2514367,Luque,ES,37.56,-4.28,1619481641,57.99,57.99,80,100,1.57
2108857,Gizo Government Station,SB,-8.1,156.84,1619481642,83.95,83.95,74,100,9.19
2649738,Fairlie,GB,55.76,-4.86,1619481642,45.09,46.0,91,73,10.38
1062663,Mahajanga,MG,-15.72,46.32,1619481061,73.4,73.4,94,40,4.61
3946937,Azángaro,PE,-14.92,-70.22,1619481642,46.15,46.15,61,87,1.43
2132606,Samarai,PG,-10.62,150.67,1619480927,81.82,81.82,79,67,8.16
1213855,Sibolga,ID,1.74,98.78,1619481643,77.81,77.81,85,99,3.13
110690,Faya,SA,18.39,42.45,1619481643,57.2,57.2,77,0,3.29
1275841,Bhopal,IN,23.27,77.4,1619481644,82.42,82.42,9,0,2.91
2409914,Bonthe,SL,7.53,-12.51,1619481072,80.19,80.19,81,52,5.75
1605957,Tak Bai,TH,6.26,102.05,1619481644,77.7,79.0,94,20,3.44
1529376,Korla,CN,41.76,86.15,1619481644,54.12,54.12,32,12,5.61
3374235,Sal Rei,CV,16.18,-22.92,1619481645,69.8,69.8,73,75,11.5
5392171,San Jose,US,37.34,-121.89,1619481357,61.11,62.6,45,75,17.27
3929611,San Jerónimo,PE,-11.95,-75.28,1619481645,42.04,42.04,98,81,5.61
2124286,Korsakov,RU,46.63,142.78,1619481646,44.6,44.6,53,7,4.47
3579925,St. George's,GD,12.06,-61.75,1619481646,80.6,80.6,74,20,20.71
3412888,Stykkisholmur,IS,65.08,-22.73,1619481608,41.58,41.58,61,0,4.7
1804979,Juegang,CN,32.32,121.19,1619481646,59.45,59.45,94,100,5.93
1506834,Filimonovo,RU,56.2,95.46,1619481647,39.13,39.13,90,97,3.2
5905393,Bonavista,CA,48.65,-53.11,1619481647,39.87,41.0,70,100,10.36
1707911,Lalawigan,PH,11.59,125.47,1619481647,79.36,79.36,79,91,4.21
3671497,Puerto Colombia,CO,10.99,-74.95,1619481647,80.6,80.6,78,75,14.97
2038067,Chifeng,CN,42.27,118.96,1619481648,51.51,51.51,28,79,16.84
2112309,Katsuura,JP,35.13,140.3,1619481648,54.97,57.99,58,20,10.36
532463,Lyubytino,RU,58.81,33.39,1619481648,33.62,33.62,99,100,3.44
2017042,Selikhino,RU,50.37,137.5,1619481649,49.21,49.21,42,67,8.7
1502073,Krasnosel'kup,RU,65.7,82.47,1619481051,27.72,27.72,90,55,14.88
2020824,Lermontovka,RU,47.15,134.34,1619481649,53.89,53.89,34,80,12.86
6355222,Yulara,AU,-25.24,130.99,1619480911,60.8,60.8,41,0,12.66
4726521,San Patricio,US,28.02,-97.52,1619481650,76.77,78.01,83,90,16.11
2033423,Yebaishou,CN,41.4,119.64,1619481650,56.41,56.41,27,93,10.13
3416888,Grindavik,IS,63.84,-22.43,1619481650,44.6,44.6,87,75,6.91
2111704,Namie,JP,37.48,141.0,1619481651,55.99,55.99,26,1,5.95
1308522,Monywa,MM,22.12,95.13,1619481651,87.03,87.03,55,7,11.88
3372472,Vila Franca do Campo,PT,37.72,-25.43,1619481116,59.0,59.0,82,75,6.91
3374333,Praia,CV,14.92,-23.51,1619481651,71.6,71.6,73,75,12.66
2268615,Elvas,PT,38.88,-7.16,1619481652,57.0,57.0,94,88,3.47
3461995,Guaíra,BR,-20.32,-48.31,1619481652,75.06,75.06,36,97,5.97
5062292,Valley City,US,46.92,-98.0,1619481652,46.4,46.4,100,90,5.75
1528998,Yumen,CN,40.28,97.2,1619481652,41.0,41.0,19,98,6.29
1526041,Atasū,KZ,48.68,71.64,1619481653,51.33,51.33,49,82,7.74
3839307,Rawson,AR,-43.3,-65.1,1619481653,64.71,64.71,40,5,6.93
2657832,Aberdeen,GB,57.14,-2.1,1619481653,43.93,44.6,93,90,10.36
368246,Raja,SS,8.46,25.68,1619481654,76.06,76.06,65,24,3.69
5110365,Broome,US,42.25,-75.83,1619481654,44.6,44.6,29,1,13.8
1563281,Tuy Hoa,VN,13.08,109.3,1619481654,80.1,80.1,82,98,1.34
5517061,Big Spring,US,32.25,-101.48,1619481519,91.44,91.99,13,1,18.41
2093691,Kokoda,PG,-8.88,147.74,1619481655,85.82,85.82,62,87,3.51
3351024,Caluquembe,AO,-13.78,14.68,1619481655,62.08,62.08,75,70,1.72
2088163,Popondetta,PG,-8.75,148.25,1619481655,87.49,87.49,57,92,2.48
518845,Novogurovskiy,RU,54.47,37.34,1619481656,35.6,35.6,87,100,4.47
3386213,Touros,BR,-5.2,-35.46,1619481102,78.8,78.8,83,20,4.61
2315026,Kasongo-Lunda,CD,-6.47,16.82,1619481656,70.38,70.38,95,72,0.81
2025241,Churapcha,RU,62.0,132.43,1619481656,33.21,33.21,99,100,5.12
1489656,Teya,RU,60.38,92.63,1619481657,33.62,33.62,85,44,2.8
469151,Yandyki,RU,45.77,47.13,1619481657,48.38,48.38,84,100,12.53
1510689,Baykit,RU,61.67,96.37,1619481657,30.27,30.27,76,24,2.37
2643044,Margate,GB,51.38,1.39,1619481657,43.72,44.01,81,100,1.01
1706466,Ligayan,PH,4.65,119.47,1619481658,82.18,82.18,73,75,2.73
211647,Lodja,CD,-3.48,23.43,1619481658,71.42,71.42,88,60,2.13
6457397,Bose,IT,45.46,8.01,1619481658,49.69,51.01,95,100,2.33
3893726,Constitución,CL,-35.33,-72.42,1619481083,57.97,57.97,69,0,8.81
2020871,Lebedinyy,RU,58.52,125.52,1619481659,31.05,31.05,99,100,10.67
3899539,Antofagasta,CL,-23.65,-70.4,1619481569,62.6,62.6,77,0,6.91
3879200,Mulchén,CL,-37.72,-72.23,1619481659,53.6,53.6,66,0,3.44
376332,Doka,SD,13.52,35.77,1619481538,78.53,78.53,56,84,8.84
5826559,Green River,US,41.53,-109.47,1619481585,50.86,55.4,22,40,26.46
2094027,Kieta,PG,-6.22,155.63,1619481561,86.36,86.36,64,83,3.02
2381972,Adrar,MR,20.5,-10.07,1619481618,82.42,82.42,19,23,11.95
1805270,Jishou,CN,28.32,109.72,1619481660,59.92,59.92,91,91,0.45
1786538,Yining,CN,29.04,114.56,1619481116,60.93,60.93,96,100,0.65
2412408,Nioro,GM,13.35,-15.75,1619481389,79.52,79.52,35,15,11.36
3461892,Guaraniaçu,BR,-25.1,-52.88,1619481602,53.76,53.76,73,0,3.91
5563397,Eureka,US,40.8,-124.16,1619481566,57.22,59.0,66,97,5.99
1805680,Jingdezhen,CN,29.29,117.21,1619481661,63.27,63.27,98,100,1.99
3598787,Champerico,GT,14.3,-91.92,1619481529,80.6,86.0,74,75,9.22
2128975,Nemuro,JP,43.32,145.57,1619481661,44.6,44.6,53,20,16.11
591703,Kallaste,EE,58.66,27.16,1619481661,38.68,39.2,93,90,8.05
2013986,Ust'-Barguzin,RU,53.45,108.98,1619481662,31.71,31.71,70,75,7.29
88834,Tūkrah,LY,32.53,20.58,1619481150,62.11,62.11,50,55,6.35
3665210,Rodrigues Alves,BR,-7.74,-72.65,1619481662,71.92,71.92,93,68,2.48
525426,Sobolevo,RU,54.43,31.9,1619481663,30.15,30.15,78,14,4.41
338554,Dubti,ET,11.74,41.09,1619481663,80.8,80.8,57,99,8.41
352733,Marsá Maţrūḩ,EG,31.35,27.25,1619480976,57.2,57.2,82,0,4.61
528521,Matveyevka,RU,52.15,56.18,1619481663,39.2,39.2,70,0,8.95
1122464,Taywarah,AF,33.35,64.42,1619481664,49.48,49.48,28,20,1.81
4379968,Cape Girardeau,US,37.38,-89.72,1619481664,75.09,75.2,41,1,16.11
2312888,Mbanza-Ngungu,CD,-5.25,14.87,1619481092,68.88,68.88,95,75,2.44
1513064,Nurobod,UZ,40.91,69.8,1619481664,62.6,62.6,45,0,6.91
1633070,Palembang,ID,-2.92,104.75,1619481665,75.2,75.2,94,20,2.3
1283334,Birin,NP,26.89,88.07,1619481665,62.58,62.58,32,10,6.02
2216645,Hūn,LY,29.13,15.95,1619481665,70.95,70.95,25,6,11.68
5364271,Laguna,US,38.42,-121.42,1619481666,65.17,66.0,25,20,4.61
2158767,Mareeba,AU,-17.0,145.43,1619481666,76.1,79.0,78,90,11.5
2037485,Erenhot,CN,43.65,111.98,1619481560,38.25,38.25,36,85,20.22
3421193,Paamiut,GL,61.99,-49.67,1619481666,34.52,34.52,90,62,4.52
2269594,Cascais,PT,38.7,-9.42,1619481667,61.0,61.0,94,94,5.01
4033356,Tiarei,PF,-17.53,-149.33,1619481546,87.8,87.8,66,40,6.91
797213,Pervomayskoye,RU,43.92,46.71,1619481667,54.7,54.7,81,100,13.04
2122574,Ola,RU,59.58,151.28,1619481526,21.85,21.85,75,10,2.98
1270525,Hājīpur,IN,25.68,85.22,1619481668,69.8,69.8,43,28,3.22
3464724,Diamantino,BR,-14.41,-56.45,1619481600,71.1,71.1,86,52,2.89
779622,Havøysund,NO,71.0,24.66,1619481325,28.4,28.4,93,40,4.61
1054463,Tsiroanomandidy,MG,-18.77,46.03,1619481668,65.41,65.41,93,92,2.06
6167817,Torbay,CA,47.67,-52.73,1619481668,39.24,42.01,75,90,21.85
3448519,São Mateus,BR,-18.72,-39.86,1619481669,75.85,75.85,82,93,7.2
504187,Puksoozero,RU,62.59,40.61,1619481669,32.9,32.9,97,100,5.73
3470137,Belmonte,BR,-15.86,-38.88,1619481580,77.0,77.0,78,20,6.91
1082243,Ambilobe,MG,-13.2,49.05,1619481612,70.86,70.86,94,15,3.2
3125287,Cervo,ES,43.67,-7.41,1619481098,55.0,55.0,89,99,8.55
2134814,Sola,VU,-13.88,167.55,1619480866,81.25,81.25,75,81,8.84
3372760,Praia da Vitória,PT,38.73,-27.07,1619481670,60.89,61.0,88,75,7.0
2013727,Vanavara,RU,60.34,102.28,1619481670,22.75,22.75,67,13,3.8
4392354,Jasper,US,37.2,-94.35,1619481670,82.4,82.4,34,1,23.02
257122,Methóni,GR,36.82,21.7,1619481671,55.99,60.01,93,92,1.14
2830851,Spaichingen,DE,48.08,8.72,1619481671,38.7,39.0,53,29,4.56
5640350,Billings Metropolitan Area,US,45.78,-108.5,1619481581,52.61,54.0,58,75,9.22
3420846,Qaqortoq,GL,60.72,-46.03,1619481502,37.4,37.4,87,75,3.44
2027244,Bagdarin,RU,54.43,113.6,1619481671,29.1,29.1,61,100,16.04
2194098,Ahipara,NZ,-35.17,173.17,1619481672,63.97,63.97,72,25,11.32
2068110,Kununurra,AU,-15.77,128.73,1619481572,82.4,82.4,61,90,5.75
1259184,Puri,IN,19.8,85.85,1619481672,82.4,82.4,89,40,10.36
2975049,Arrondissement de Sens,FR,48.17,3.33,1619481672,41.0,41.0,63,71,7.11
895057,Binga,ZW,-17.62,27.34,1619481673,70.02,70.02,63,15,1.74
5545269,Price,US,39.6,-110.81,1619481500,53.6,53.6,37,90,20.71
2121385,Severo-Kuril'sk,RU,50.68,156.12,1619481673,31.48,31.48,97,100,20.85
1624679,Tarogong,ID,-7.19,107.89,1619481674,72.0,72.0,89,12,1.99
2185329,Otane,NZ,-39.88,176.63,1619481674,61.27,66.99,50,94,7.0
921772,Moroni,KM,-11.7,43.26,1619481674,78.64,78.64,77,73,3.87
2015913,Suntar,RU,62.14,117.63,1619481674,20.95,20.95,70,97,9.48
2125693,Evensk,RU,61.95,159.23,1619481525,20.16,20.16,78,19,1.9
3489657,Lucea,JM,18.45,-78.17,1619481675,81.1,82.4,69,20,5.75
155274,Mahenge,TZ,-8.68,36.72,1619481675,61.86,61.86,96,91,1.95
2012530,Zhigansk,RU,66.77,123.37,1619481675,14.63,14.63,86,100,16.89
3137469,Sørland,NO,67.67,12.69,1619481676,36.7,36.7,62,45,18.05
1797132,Rizhao,CN,35.43,119.46,1619481676,58.93,58.93,82,62,6.35
2109528,Buala,SB,-8.14,159.59,1619481676,81.54,81.54,81,95,7.18
3576994,Cockburn Town,TC,21.46,-71.14,1619481146,78.44,78.44,74,0,13.49
2243271,Cabinda,AO,-5.55,12.2,1619481677,79.3,79.3,89,100,6.17
1071296,Antalaha,MG,-14.9,50.28,1619481677,72.52,72.52,90,61,4.92
5877641,Wasilla,US,61.58,-149.44,1619481619,59.81,62.6,31,1,6.91
544084,Koslan,RU,63.46,48.9,1619481678,38.71,38.71,93,100,6.24
1784310,Zhongshu,CN,24.52,103.77,1619481678,56.55,56.55,95,100,4.59
976361,Middelburg,ZA,-25.78,29.46,1619481675,53.65,53.65,27,7,0.49
5870133,Nome,US,64.5,-165.41,1619481555,46.4,46.4,61,20,3.44
1635882,Mataram,ID,-8.58,116.12,1619481678,77.0,77.0,88,20,2.3
2374583,Bubaque,GW,11.28,-15.83,1619481679,78.31,78.31,70,53,16.73
4969398,Lewiston,US,44.1,-70.21,1619481173,39.52,41.0,48,1,24.16
212902,Kindu,CD,-2.95,25.95,1619481679,70.48,70.48,92,81,2.15
2633274,Akureyri,IS,65.68,-18.09,1619481124,32.0,32.0,86,0,3.44
939676,Willowmore,ZA,-33.29,23.49,1619481680,59.32,59.32,71,73,4.88
1277263,Banmankhi,IN,25.88,87.18,1619481680,78.87,78.87,13,5,2.86
1726449,Basco,PH,20.45,121.97,1619481680,75.52,75.52,69,87,17.98
2513947,Melilla,ES,35.29,-2.94,1619481681,59.49,60.8,88,0,2.3
